NOME FANTASIA,RAZÃO SOCIAL,CNPJ,TIPO,ATIVIDADE,NATUREZA JURÍDICA,PORTE,FATURAMENTO,CAPITAL SOCIAL,QUANT. FUNC.,DATA ABERT.,SÓCIOS,TELEFONE,EMAIL,CIDADE,ESTADO,BAIRRO,CEP,LOGRADOURO,NÚMERO,LOCATION,Lat,Lng,km.res$cluster
Alemao Tur Viagens E Turismo Ltda - Epp,Alemao Tur Viagens E Turismo Ltda - Epp,03.558.344/0001-09,SERVIÇOS,Agencias de viagens e serviços aos transportes,Sociedade Empresária Limitada, Pequeno porte,de R$360 mil até R$3.6 M ,Não Informado,Não Informado,17/12/1999,Não Informado,Não Informado,Não Informado,Joao Pessoa,PB,Dos Novais,58.088-540,Avenida Desembargador Santos Estanislau,S/N,"Avenida Desembargador Santos Estanislau, Joao Pessoa - PB",-7.1554721,-34.9008742,4
Logica Transportes Ltda - Epp,Logica Transportes Ltda - Epp,00.934.152/0001-61,SERVIÇOS,Agencias de viagens e serviços aos transportes,Sociedade Empresária Limitada, Pequeno porte,de R$360 mil até R$3.6 M ,Não Informado,Não Informado,28/11/1995,Não Informado,Não Informado,Não Informado,Joao Pessoa,PB,Pedro Gondim,58.031-003,Avenida Presidente Epitacio Pessoa,S/N,"Avenida Presidente Epitacio Pessoa, Joao Pessoa - PB",-7.1196999,-34.8471031,4
Classic Viagens E Turismo - Eireli - Epp,Classic Viagens E Turismo - Eireli - Epp,00.448.994/0001-03,SERVIÇOS,Agencias de viagens e serviços aos transportes,Empresa Individual De Responsabilidade Limitada (De Natureza Empresária), Pequeno porte,de R$360 mil até R$3.6 M ,Não Informado,Não Informado,2/22/1995,Não Informado,Não Informado,Não Informado,Joao Pessoa,PB,Dos Estados,58.030-001,Avenida Presidente Epitacio Pessoa,S/N,"Avenida Presidente Epitacio Pessoa, Joao Pessoa - PB",-7.1196999,-34.8471031,4
Jpa Agencia De Viagens E Turismo Receptivo Ltda - Epp,Jpa Agencia De Viagens E Turismo Receptivo Ltda - Epp,19.663.464/0001-06,SERVIÇOS,Agencias de viagens e serviços aos transportes,Sociedade Empresária Limitada, Pequeno porte,de R$360 mil até R$3.6 M ,Não Informado,Não Informado,2/5/2014,Não Informado,Não Informado,Não Informado,Joao Pessoa,PB,Manaira,58.038-000,Avenida Joao Mauricio,S/N,"Avenida Joao Mauricio, Joao Pessoa - PB",-7.1036005,-34.8302323,4
Italo Rua F Viagens - Epp,Italo Rua F Viagens - Epp,17.899.861/0001-56,SERVIÇOS,Agencias de viagens e serviços aos transportes,Empresário (Individual), Pequeno porte,de R$360 mil até R$3.6 M ,Não Informado,Até 4,4/9/2013,Não Informado,Não Informado,Não Informado,Campina Grande,PB,Bela Vista,58.428-790,Rua Montevideu,S/N,"Rua Montevideu, Campina Grande - PB",-7.2199459,-35.898276,2
Primeira Classe Viagens Turismo E ServiÇos Ltda - Epp,Primeira Classe Viagens Turismo E ServiÇos Ltda - Epp,21.784.776/0001-10,SERVIÇOS,Agencias de viagens e serviços aos transportes,Sociedade Empresária Limitada, Pequeno porte,de R$360 mil até R$3.6 M ,Não Informado,5 à 9,1/30/2015,Não Informado,Não Informado,Não Informado,Joao Pesso,PB,Manaira,58.037-000,Avenida Governador Flavio Ribeiro Coutinho,S/N,"Avenida Governador Flavio Ribeiro Coutinho, Joao Pesso - PB",-7.0976486,-34.8408272,4
Wup Transportes Turismo & Receptivo Ltda - Epp,Wup Transportes Turismo & Receptivo Ltda - Epp,13.860.740/0001-40,SERVIÇOS,Agencias de viagens e serviços aos transportes,Sociedade Empresária Limitada, Pequeno porte,de R$360 mil até R$3.6 M ,Não Informado,Até 4,6/27/2011,Não Informado,Não Informado,Não Informado,Joao Pessoa,PB,Manaira,58.038-000,Avenida Joao Mauricio,S/N,"Avenida Joao Mauricio, Joao Pessoa - PB",-7.1036005,-34.8302323,4
Roger Turismo Eireli - Epp,Roger Turismo Eireli - Epp,00.460.120/0001-71,SERVIÇOS,Agencias de viagens e serviços aos transportes,Empresa Individual De Responsabilidade Limitada (De Natureza Empresária), Pequeno porte,de R$360 mil até R$3.6 M ,Não Informado,20 à 49,3/3/1995,Não Informado,Não Informado,Não Informado,Joao Pessoa,PB,Tambau,58.039-050,Avenida Antonio Lira,S/N,"Avenida Antonio Lira, Joao Pessoa - PB",-7.1184622,-34.8245481,4
Apoiotur Viagens E Turismo Ltda - Epp,Apoiotur Viagens E Turismo Ltda - Epp,11.902.871/0001-17,SERVIÇOS,Agencias de viagens e serviços aos transportes,Sociedade Empresária Limitada, Pequeno porte,de R$360 mil até R$3.6 M ,Não Informado,5 à 9,2/13/1987,Não Informado,Não Informado,Não Informado,Joao Pessoa,PB,Cabo Branco,58.045-230,Rua Tabeliao Jose Ramalho Leite,S/N,"Rua Tabeliao Jose Ramalho Leite, Joao Pessoa - PB",-7.1264825,-34.8250565,4
Maria Iris Cruz Justino Da Costa Eireli - Epp,Maria Iris Cruz Justino Da Costa Eireli - Epp,22.201.904/0001-18,SERVIÇOS,Agencias de viagens e serviços aos transportes,Empresa Individual De Responsabilidade Limitada (De Natureza Empresária), Pequeno porte,de R$360 mil até R$3.6 M ,Não Informado,Não Informado,4/7/2015,Não Informado,Não Informado,Não Informado,Joao Pessoa,PB,Oitizeiro,58.088-540,Avenida Desembargador Santos Estanislau,S/N,"Avenida Desembargador Santos Estanislau, Joao Pessoa - PB",-7.1554721,-34.9008742,4
Ct Viagens ServiÇos Ltda - Epp,Ct Viagens ServiÇos Ltda - Epp,23.895.266/0001-45,SERVIÇOS,Agencias de viagens e serviços aos transportes,Sociedade Empresária Limitada, Pequeno porte,de R$360 mil até R$3.6 M ,Não Informado,5 à 9,30/12/2015,Não Informado,Não Informado,Não Informado,Joao Pessoa,PB,Tambia,58.020-500,Avenida Deputado Odon Bezerra,S/N,"Avenida Deputado Odon Bezerra, Joao Pessoa - PB",-7.1151481,-34.879769,2
Vm Viagens E Turismo Ltda - Epp,Vm Viagens E Turismo Ltda - Epp,19.596.008/0001-90,SERVIÇOS,Agencias de viagens e serviços aos transportes,Sociedade Empresária Limitada, Pequeno porte,de R$360 mil até R$3.6 M ,Não Informado,5 à 9,1/24/2014,Não Informado,Não Informado,Não Informado,Joao Pessoa,PB,Manaira,58.038-680,Rua Manoel Arruda Cavalcanti,S/N,"Rua Manoel Arruda Cavalcanti, Joao Pessoa - PB",-7.1018396,-34.8434517,4
Gpx Viagens E Turismo Ltda - Epp,Gpx Viagens E Turismo Ltda - Epp,14.239.914/0001-14,SERVIÇOS,Agencias de viagens e serviços aos transportes,Sociedade Empresária Limitada, Pequeno porte,de R$360 mil até R$3.6 M ,Não Informado,Não Informado,9/5/2011,Não Informado,Não Informado,Não Informado,Joao Pessoa,PB,Manaira,58.038-281,Avenida Esperanca,S/N,"Avenida Esperanca, Joao Pessoa - PB",-7.1059664,-34.8336358,4
Tania Miguel Duarte - Epp,Tania Miguel Duarte - Epp,13.814.987/0001-20,SERVIÇOS,Agencias de viagens e serviços aos transportes,Empresário (Individual), Pequeno porte,de R$360 mil até R$3.6 M ,Não Informado,Não Informado,6/15/2011,Não Informado,Não Informado,Não Informado,Joao Pessoa,PB,Brisamar,58.030-002,Rua Doutor Nunes Filho,S/N,"Rua Doutor Nunes Filho, Joao Pessoa - PB",-7.1184721,-34.8419794,4
Bessatur Viagens E Turismo Ltda - Epp,Bessatur Viagens E Turismo Ltda - Epp,40.974.164/0001-34,SERVIÇOS,Agencias de viagens e serviços aos transportes,Sociedade Empresária Limitada, Pequeno porte,de R$360 mil até R$3.6 M ,Não Informado,Não Informado,3/1/1992,Não Informado,Não Informado,Não Informado,Joao Pessoa,PB,Altiplano Cabo Branco,58.046-000,Avenida Joao Cirilo Da Silva,S/N,"Avenida Joao Cirilo Da Silva, Joao Pessoa - PB",-7.1412829,-34.8179441,4
Maritimos E Eventos,Jr Empreendimentos Nauticos Ltda - Epp,16.539.544/0001-66,SERVIÇOS,Agencias de viagens e serviços aos transportes,Sociedade Empresária Limitada, Pequeno porte,de R$360 mil até R$3.6 M ,Não Informado,Não Informado,7/20/2012,Não Informado,(83) 3226-5487,Não Informado,Cabedelo,PB,Jacare,58.310-000,Rua Mata Atlantica,307,"Rua Mata Atlantica, Cabedelo - PB",-7.0490873,-34.8514935,4
Xplorar Do Brasil Turismo Ltda - Epp,Xplorar Do Brasil Turismo Ltda - Epp,05.060.261/0001-10,SERVIÇOS,Agencias de viagens e serviços aos transportes,Sociedade Empresária Limitada, Pequeno porte,de R$360 mil até R$3.6 M ,Não Informado,5 à 9,5/24/2002,"Maria Do Carmo Santiago Carneiro, Jose Carneiro De Carvalho Neto",(83) 3226-3363,mariadocarmo@xplorar.com.br,Joao Pessoa,PB,Manaira,58.038-100,Avenida General Edson Ramalho,100,"Avenida General Edson Ramalho, Joao Pessoa - PB",-7.1048608,-34.8310873,4
Renascer Turismo,Renascer Transportes E Turismo Ltda - Epp,05.064.986/0001-87,SERVIÇOS,Agencias de viagens e serviços aos transportes,Sociedade Empresária Limitada, Pequeno porte,de R$360 mil até R$3.6 M ,"130,000.00",Não Informado,5/28/2002,"Marcos Goncalves De Lima, Maristela Costa Cavalcante De Lima",Não Informado,Não Informado,Bayeux,PB,Jardim Aeroporto,58.308-300,Rua Antonio Leandro De Medeiros,526,"Rua Antonio Leandro De Medeiros, Bayeux - PB",-7.139171,-34.9371847,4
Terra Brasilis Viagens E Turismo,Terra Brasilis Viagens E Turismo Ltda - Epp,13.418.459/0001-51,SERVIÇOS,Agencias de viagens e serviços aos transportes,Sociedade Empresária Limitada, Pequeno porte,de R$360 mil até R$3.6 M ,Não Informado,Não Informado,3/24/2011,Não Informado,(83) 8826-1092,Não Informado,Bayeux,PB,Sesi,58.306-000,Avenida Liberdade,2745,"Avenida Liberdade, Bayeux - PB",-7.1224175,-34.9145398,4
Metropolitan Viagens E Turismo Ltda - Epp,Metropolitan Viagens E Turismo Ltda - Epp,12.829.772/0001-10,SERVIÇOS,Agencias de viagens e serviços aos transportes,Sociedade Empresária Limitada, Pequeno porte,de R$360 mil até R$3.6 M ,Não Informado,Não Informado,11/9/2010,Não Informado,Não Informado,Não Informado,Joao Pessoa,PB,Centro,58.010-030,Rua Tenente Retumba,S/N,"Rua Tenente Retumba, Joao Pessoa - PB",-7.1204383,-34.8862225,4
Rogetur Transporte E Turismo Ltda - Epp,Rogetur Transporte E Turismo Ltda - Epp,70.108.907/0001-54,SERVIÇOS,Agencias de viagens e serviços aos transportes,Sociedade Empresária Limitada, Pequeno porte,de R$360 mil até R$3.6 M ,Não Informado,Até 4,2/1/1994,Não Informado,Não Informado,Não Informado,Joao Pessoa,PB,Tambia,58.020-700,Rua Oswaldo Cruz,S/N,"Rua Oswaldo Cruz, Joao Pessoa - PB",-7.1160046,-34.8711538,4
Inava Lobo Maia - Epp,Inava Lobo Maia - Epp,15.280.857/0001-80,SERVIÇOS,Agencias de viagens e serviços aos transportes,Empresário (Individual), Pequeno porte,de R$360 mil até R$3.6 M ,Não Informado,Não Informado,3/27/2012,Não Informado,Não Informado,Não Informado,Joao Pessoa,PB,Tambia,58.013-290,Rua Euripedes Tavares,S/N,"Rua Euripedes Tavares, Joao Pessoa - PB",-7.1188058,-34.875711,2
Nordeste Turismo & Seguros,Nordeste Operadora Turistica & Seguros Eireli - Epp,20.664.056/0001-58,SERVIÇOS,Agencias de viagens e serviços aos transportes,Empresa Individual De Responsabilidade Limitada (De Natureza Empresária), Pequeno porte,de R$360 mil até R$3.6 M ,Não Informado,Até 4,7/17/2014,Não Informado,(83) 8899-0188,daniellggg@hotmail.com,Santa Rita,PB,Centro,58.300-390,Rua Francisco Gomes De Azevedo,11,"Rua Francisco Gomes De Azevedo, Santa Rita - PB",-7.1248262,-34.9815942,4
Gilog,Gilog Gestao De Armazenagem Ltda,19.706.709/0001-35,SERVIÇOS,Agencias de viagens e serviços aos transportes,Sociedade Empresária Limitada, Pequeno porte,de R$360 mil até R$3.6 M ,"80,000.00",Não Informado,2/12/2014,"Sandra Cavalcanti Cunha, Anadite Domiciano Moura",(83) 3221-6671,gilog@gilog.com.br,Bayeux,PB,Sesi,58.306-000,Avenida Liberdade,3230,"Avenida Liberdade, Bayeux - PB",-7.1224175,-34.9145398,4
Praticagem Cabo Branco,Praticagem Cabo Branco S/S Ltda - Epp,22.723.546/0001-03,SERVIÇOS,Agencias de viagens e serviços aos transportes,Sociedade Simples Limitada, Pequeno porte,de R$360 mil até R$3.6 M ,Não Informado,Não Informado,6/10/2015,Não Informado,(83) 8129-0540,christian.mari@hotmail.com,Cabedelo,PB,Formosa,58.101-160,Rua Estudante Paulo Maia Guimaraes,304,"Rua Estudante Paulo Maia Guimaraes, Cabedelo - PB",-6.9814384,-34.829021,2
Rua & Rua Servicos Maritimos E Portuarios Ltda - Epp,Rua & Rua Servicos Maritimos E Portuarios Ltda - Epp,14.329.919/0001-38,SERVIÇOS,Agencias de viagens e serviços aos transportes,Sociedade Empresária Limitada, Pequeno porte,de R$360 mil até R$3.6 M ,Não Informado,Não Informado,9/21/2011,Não Informado,(83) 3228-1487,Não Informado,Cabedelo,PB, Centro,58.310-000,Rua Rua Maura Viana De Medeiros,156,"Rua Rua Maura Viana De Medeiros, Cabedelo - PB",-6.973367,-34.8374438,4
Adeildon Rolim De Souza - Epp,Adeildon Rolim De Souza - Epp,03.654.982/0001-23,SERVIÇOS,Agencias de viagens e serviços aos transportes, Empresário (Individual), Pequeno porte,de R$360 mil até R$3.6 M ,Não Informado,Não Informado,2/7/2000,Não Informado,Não Informado,Não Informado,Campina Grande,PB,Bodocongo Iii,58.107-426,Rua Cicero Alves De Brito,S/N,"Rua Cicero Alves De Brito, Campina Grande - PB",-7.2333246,-35.9308223,4
B.E Locacao De Imoveis Ltda - Epp,B.E Locacao De Imoveis Ltda - Epp,17.851.721/0001-08,SERVIÇOS,Agencias de viagens e serviços aos transportes,Sociedade Empresária Limitada, Pequeno porte,de R$360 mil até R$3.6 M ,Não Informado,Não Informado,4/1/2013,Não Informado,Não Informado,Não Informado,Campina Grande,PB,Distrito Industrial, 58.411-370,Avenida Aeroclube,S/N,"Avenida Aeroclube, Campina Grande - PB",-7.263857,-35.8917212,4
Jose Irineu Da Costa Lima - Epp,Jose Irineu Da Costa Lima - Epp,12.929.998/0001-92,SERVIÇOS,Agencias de viagens e serviços aos transportes,Empresário (Individual), Pequeno porte,de R$360 mil até R$3.6 M ,Não Informado,20 à 49,12/1/1988,Não Informado,Não Informado,Não Informado,Joao Pessoa,PB,Jose Americo,58.073-171,Rua Antonio Anastacio Pereira,S/N,"Rua Antonio Anastacio Pereira, Joao Pessoa - PB",-7.1653656,-34.8534228,4
Agencia Paraibana De Despachos Maritimos Ltda - Epp,Agencia Paraibana De Despachos Maritimos Ltda - Epp,35.497.718/0001-10,SERVIÇOS,Agencias de viagens e serviços aos transportes,Sociedade Empresária Limitada, Pequeno porte,de R$360 mil até R$3.6 M ,Não Informado,Não Informado,2/1/1991,Não Informado,(83) 3228-4261,Não Informado,Cabedelo,PB,Centro,58.100-100,Rua Presidente Joao Pessoa,23 A,"Rua Presidente Joao Pessoa, Cabedelo - PB",-6.973809,-34.837604,2
Svc-Fly Servicos De Transportes Aereos Auxiliares Ltda - Epp,Svc-Fly Servicos De Transportes Aereos Auxiliares Ltda - Epp,02.974.678/0001-09,SERVIÇOS,Agencias de viagens e serviços aos transportes,Sociedade Empresária Limitada, Pequeno porte,de R$360 mil até R$3.6 M ,Não Informado,Até 4,2/11/1999,Não Informado,Não Informado,Não Informado,Bayeux,PB,Aeroporto,58.308-330,Aer Castro Pinto,S/N,"Aer Castro Pinto, Bayeux - PB",-7.1460091,-34.9487764,4
Milenio Servicos De Reboque De Veiculos Ltda - Epp,Milenio Servicos De Reboque De Veiculos Ltda - Epp,05.215.841/0001-30,SERVIÇOS,Agencias de viagens e serviços aos transportes,Sociedade Empresária Limitada, Pequeno porte,de R$360 mil até R$3.6 M ,Não Informado,10 à 19,8/14/2002,Não Informado,Não Informado,Não Informado,Campina Grande,PB,Centro,58.400-036,Rua Joao Suassuna,S/N,"Rua Joao Suassuna, Campina Grande - PB",-7.2122617,-35.896333,2
Ndj Lojistica De Transportes E Representacao Eireli - Epp,Ndj Lojistica De Transportes E Representacao Eireli - Epp,20.118.259/0001-49,SERVIÇOS,Agencias de viagens e serviços aos transportes,Empresa Individual De Responsabilidade Limitada (De Natureza Empresária), Pequeno porte,de R$360 mil até R$3.6 M ,Não Informado,Não Informado,4/22/2014,Não Informado,Não Informado,Não Informado,Joao Pessoa,PB,Torre,58.040-380,Avenida Nossa Senhora De Fatima,S/N,"Avenida Nossa Senhora De Fatima, Joao Pessoa - PB",-7.1282105,-34.8653051,4
Thunnus,Thunnus Servicos Maritimos Eireli - Epp,16.581.101/0001-33,SERVIÇOS,Agencias de viagens e serviços aos transportes,Empresa Individual De Responsabilidade Limitada (De Natureza Empresária), Pequeno porte,de R$360 mil até R$3.6 M ,Não Informado,Não Informado,7/26/2012,Não Informado,(83) 3228-2136,Não Informado,Cabedelo,PB,Centro,58.100-100,Rua Presidente Joao Pessoa,23A,"Rua Presidente Joao Pessoa, Cabedelo - PB",-6.973809,-34.837604,2
Mgf Servico De Estacionamento De Veiculos Ltda - Epp,Mgf Servico De Estacionamento De Veiculos Ltda - Epp,26.116.973/0001-84,SERVIÇOS,Agencias de viagens e serviços aos transportes,Sociedade Empresária Limitada, Pequeno porte,de R$360 mil até R$3.6 M ,"10,000.00",Não Informado,9/6/2016,"Rogerio De Melo, Monique Raissa Duarte De Melo",(85) 9139-2288,Não Informado,Campina Grande,PB,Jose Pinheiro,58.407-475,Avenida Prefeito Severino Bezerra Cabral,1339,"Avenida Prefeito Severino Bezerra Cabral, Campina Grande - PB",-7.2390598,-35.86361,2
Cargas E Descargas J. Silva,Josemar De Lima Silva - Epp,05.232.381/0001-58,SERVIÇOS,Agencias de viagens e serviços aos transportes,Empresário (Individual), Pequeno porte,de R$360 mil até R$3.6 M ,Não Informado,20 à 49,8/20/2002,Não Informado,(83) 8885-2341,zimar01@hotmail.com,Campina Grande,PB,Velame,58.419-278,Rua Julio Eduardo De Morais Da Silva,121,"Rua Julio Eduardo De Morais Da Silva, Campina Grande - PB",-7.2882989,-35.8956671,4
Maria Auxiliadora De Souto Cordeiro - Epp,Maria Auxiliadora De Souto Cordeiro - Epp,03.160.984/0001-66,SERVIÇOS,Agencias de viagens e serviços aos transportes,Empresário (Individual), Pequeno porte,de R$360 mil até R$3.6 M ,Não Informado,Não Informado,5/13/1999,Não Informado,Não Informado,Não Informado,Campina Grande,PB,Centro,58.400-028,Rua Joao Da Silva Pimentel,S/N,"Rua Joao Da Silva Pimentel, Campina Grande - PB",-7.2130686,-35.8877797,4
CloudtaxÍ AÉreo Gerenciamento De Voos Ltda - Epp,CloudtaxÍ AÉreo Gerenciamento De Voos Ltda - Epp,24.324.698/0001-69,SERVIÇOS,Agencias de viagens e serviços aos transportes,Sociedade Empresária Limitada, Pequeno porte,de R$360 mil até R$3.6 M ,Não Informado,Não Informado,3/7/2016,Não Informado,Não Informado,Não Informado,Campina Grande,PB,Nacoes,58.402-663,Avenida Belgica,S/N,"Avenida Belgica, Campina Grande - PB",-7.19469,-35.8786738,4
Tadeu Freitas Dos Santos - Epp,Tadeu Freitas Dos Santos - Epp,18.071.408/0001-10,SERVIÇOS,Agencias de viagens e serviços aos transportes,Empresário (Individual), Pequeno porte,de R$360 mil até R$3.6 M ,Não Informado,Não Informado,5/7/2013,Não Informado,Não Informado,Não Informado,Joao Pessoa,PB,Oitizeiro,58.087-000,Avenida Cruz Das Armas,S/N,"Avenida Cruz Das Armas, Joao Pessoa - PB",-7.1487564,-34.893197,2
Smartiks Tecnologia,Smartiks Tecnologia Da Informacao Ltda,06.141.653/0001-77,SERVIÇOS,Atividades de Serviços de Tecnologia da informação e prestação de serviços de informática TI,Sociedade Empresária Limitada,Pequeno Porte,de R$360 mil até R$3.6 M ,"R$40,000.00",5 à 9,3/15/2004,"Eloi Rocha Neto, Leandro Jose Ventura Silva",(83) 98868-7025,elo@smartiks.com,Campina Grande,PB,Universitário,58.429-690,Rua Emiliano Rosendo Da Silva,115,"Rua Emiliano Rosendo Da Silva, Campina Grande - PB",-7.2076629,-35.9223008,4
Social.Id Gestao Em Midias Sociais,Luciano Marques De Macedo,19.561.936/0001-10,SERVIÇOS,Atividades de Serviços de Tecnologia da informação e prestação de serviços de informática TI,Empresário (Individual),Pequeno Porte,de R$360 mil até R$3.6 M ,"R$10,000.00",Não informado,1/21/2014,Não informado,(83) 98822-8003,Não informado,João Pessoa,PB,Manaíra,58.038-440,Rua Francisco De Assis Frade,150,"Rua Francisco De Assis Frade, João Pessoa - PB",-7.0983759,-34.8407635,4
Brdeal Consultoria,Brdeal Consultoria E Desenvolvimento De Sistemas Em Automacao Ltda,17.894.382/0001-47,SERVIÇOS,Atividades de Serviços de Tecnologia da informação e prestação de serviços de informática TI,Sociedade Empresária Limitada,Pequeno Porte,de R$360 mil até R$3.6 M ,"R$50,000.00",Não informado,4/9/2013,"Marcos Jose Ribeiro Antunes, Cesar Da Silva Gomes",(83) 98857-3331,Não informado,Catolé da Rocha,PB,Centro,58.884-000,Rua Bevenuto Goncalves,S/N,"Rua Bevenuto Goncalves, Catolé da Rocha - PB",-6.3425863,-37.7481492,4
Plus Up - Solucoes Digitais,Wesley Costa Melo Galdino,12.644.570/0001-01,SERVIÇOS,Atividades de Serviços de Tecnologia da informação e prestação de serviços de informática TI,Empresário (Individual),Pequeno Porte,de R$360 mil até R$3.6 M ,"R$2,000.00",Não informado,10/6/2010,Não informado,(83) 3343-1700,wesleygaldino@gmail.com,Campina Grande,PB,Lauritzen,58.401-396,Rua Agrimensor Jose De Brito,66,"Rua Agrimensor Jose De Brito, Campina Grande - PB",-7.2134656,-35.880725,2
Keno Pb / Conect Facil Pb,New Loteamento Conect Pb Servicos Ltda,25.375.492/0001-20,SERVIÇOS,Atividades de Serviços de Tecnologia da informação e prestação de serviços de informática TI,Sociedade Empresária Limitada,Pequeno Porte,de R$360 mil até R$3.6 M ,"R$300,000.00",Não informado,8/4/2016,"Carlos Henrique Reis Menezes, Bruno Iath Pires",(83) 99805-8491,chrmenezes@gmail.com,João Pessoa,PB,Torre,58.040-491,Avenida Rui Barbosa,1101,"Avenida Rui Barbosa, João Pessoa - PB",-7.12646,-34.8605262,4
Neocart Tecnologia,Marcia Regina Freire Paiva Bringel,13.420.817/0001-60,SERVIÇOS,Atividades de Serviços de Tecnologia da informação e prestação de serviços de informática TI,Empresário (Individual),Pequeno Porte,de R$360 mil até R$3.6 M ,"R$10,000.00",5 à 9,3/25/2011,Não informado,(83) 3021-3100,ricardo@neocart.com.br,João Pessoa,PB,Centro,58.013-522,Avenida Joao Machado,553,"Avenida Joao Machado, João Pessoa - PB",-7.1261454,-34.8782661,4
Dx3 ServiÇos Em Tecnologia Ltda.,Dx3 ServiÇos Em Tecnologia Ltda.,09.414.386/0001-52,SERVIÇOS,Atividades de Serviços de Tecnologia da informação e prestação de serviços de informática TI,Empresário (Individual),Pequeno Porte,de R$360 mil até R$3.6 M ,"R$30,000.00",Não informado,3/11/2008,"Matheus Elmiro Correia De Sousa, Marcus Antonio Nunes Cavalcanti Filho, Francisco Eleuterio De Oliveira Junior",(83) 3042-5289,Não informado,João Pessoa,PB,Bairro dos Estados,58.030-261,Avenida Maranhao,958,"Avenida Maranhao, João Pessoa - PB",-7.1150854,-34.8553413,4
E-Soft,E-Soft Tecnologia Em Informatica Ltda,17.758.807/0001-90,SERVIÇOS,Atividades de Serviços de Tecnologia da informação e prestação de serviços de informática TI,Sociedade Empresária Limitada,Pequeno Porte,de R$360 mil até R$3.6 M ,"R$30,000.00",Não informado,3/15/2013,"Jose Victor Bezerra Ramalho, Adriana Helena Bezerra Ramalho",(83) 3222-4586,Não informado,João Pessoa,PB,Pedro Gondim,58.031-000,Rua Desportista Aurelio Rocha,616,"Rua Desportista Aurelio Rocha, João Pessoa - PB",-7.115007,-34.8495141,4
Elmar - Processamento De Dados Eireli,Elmar - Processamento De Dados Eireli,09.164.369/0001-04,SERVIÇOS,Atividades de Serviços de Tecnologia da informação e prestação de serviços de informática TI,Empresa Individual De Responsabilidade Limitada (De Natureza Empresária),Pequeno Porte,de R$360 mil até R$3.6 M ,"R$94,000.00",10 à 19,4/26/1985,Elpidio Rodrigues Ramalho Filho,Não informado,Não informado,João Pessoa,PB,Pedro Gondim,58.031-010,Rua Cel Otto Feio Silveira,343,"Rua Cel Otto Feio Silveira, João Pessoa - PB",-7.118512,-34.8475665,4
Easy Plan Consultoria E Treinamento Em Planejamento E Tecnologia,Easy Plan Consultoria E Treinamento Em Planejamento E Tecnologia Ltda - Epp,21.519.310/0001-97,SERVIÇOS,Atividades de Serviços de Tecnologia da informação e prestação de serviços de informática TI,Sociedade Empresária Limitada,Pequeno Porte,de R$360 mil até R$3.6 M ,Não informado,Não informado,12/3/2014,Não informado,(83) 3421-6543,Não informado,Patos,PB,Brasília,58.700-470,Rua Ana Leite Nobrega,56,"Rua Ana Leite Nobrega, Patos - PB",-7.0269758,-37.2716212,4
Ricardo Guerra Informatica - Epp,Ricardo Guerra Informatica - Epp,03.500.830/0001-76,SERVIÇOS,Atividades de Serviços de Tecnologia da informação e prestação de serviços de informática TI,Empresário (Individual),Pequeno Porte,de R$360 mil até R$3.6 M ,Não informado,Não informado,13/10/1999,Não informado,Não informado,Não informado,João Pessoa,PB,Tambauzinho,58.042-160,Rua Professora Emerentina Coelho,S/N,"Rua Professora Emerentina Coelho, João Pessoa - PB",-7.1222276,-34.8399157,4
Evolucao Suprimentos E Sistemas De Informatica Ltda - Epp,Evolucao Suprimentos E Sistemas De Informatica Ltda - Epp,08.156.402/0001-91,SERVIÇOS,Atividades de Serviços de Tecnologia da informação e prestação de serviços de informática TI,Sociedade Empresária Limitada,Pequeno Porte,de R$360 mil até R$3.6 M ,Não informado,até 4,7/18/2006,Não informado,Não informado,Não informado,João Pessoa,PB,Bairro dos Estados,58.030-000,Avenida Epitacio Pessoa,S/N,"Avenida Epitacio Pessoa, João Pessoa - PB",-7.1196999,-34.8471031,4
Contabiltec Servicos E Tecnologia Ltda - Epp,Contabiltec Servicos E Tecnologia Ltda - Epp,17.903.482/0001-92,SERVIÇOS,Atividades de Serviços de Tecnologia da informação e prestação de serviços de informática TI,Sociedade Empresária Limitada,Pequeno Porte,de R$360 mil até R$3.6 M ,Não informado,Não informado,4/10/2013,Não informado,(83) 3513-9633,Não informado,João Pessoa,PB,Manaíra,58.038-440,Rua Francisco De Assis Frade,150,"Rua Francisco De Assis Frade, João Pessoa - PB",-7.0983759,-34.8407635,4
Jampatec Servicos De Informatica Eireli - Epp,Jampatec Servicos De Informatica Eireli - Epp,26.584.648/0001-46,SERVIÇOS,Atividades de Serviços de Tecnologia da informação e prestação de serviços de informática TI,Empresa Individual De Responsabilidade Limitada (De Natureza Empresária),Pequeno Porte,de R$360 mil até R$3.6 M ,Não informado,Não informado,22/11/2016,Não informado,Não informado,Não informado,Tavares,PB,Centro,58.753-000,Rua Saturnino Fagundes,S/N,"Rua Saturnino Fagundes, Tavares - PB",-7.6353663,-37.8769664,4
Ima ServiÇos De GestÃo De Imagem E Marketing Ltda - Epp,Ima ServiÇos De GestÃo De Imagem E Marketing Ltda - Epp,09.223.519/0001-03,SERVIÇOS,Atividades de Serviços de Tecnologia da informação e prestação de serviços de informática TI,Sociedade Empresária Limitada,Pequeno Porte,de R$360 mil até R$3.6 M ,Não informado,20 à 49,29/11/2007,Não informado,Não informado,Não informado,João Pessoa,PB,Tambauzinho,58.042-060,Rua Deputado Geraldo Mariz,S/N,"Rua Deputado Geraldo Mariz, João Pessoa - PB",-7.1210235,-34.8420476,4
Social.Id Gestao Em Midias Sociais,Luciano Marques De Macedo,19.561.936/0001-10,SERVIÇOS,Atividades de Serviços de Tecnologia da informação e prestação de serviços de informática TI,Empresário (Individual),Pequeno Porte,de R$360 mil até R$3.6 M ,"R$10,000.00",Não informado,1/21/2014,Não informado,(83) 98822-8003,Não informado,João Pessoa,PB,Manaíra,58.038-440,Rua Francisco De Assis Frade,150,"Rua Francisco De Assis Frade, João Pessoa - PB",-7.0983759,-34.8407635,4
A.G.Rua Sistemas Ltda - Epp,A.G.Rua Sistemas Ltda - Epp,03.054.272/0001-62,SERVIÇOS,Atividades de Serviços de Tecnologia da informação e prestação de serviços de informática TI,Sociedade Empresária Limitada,Pequeno Porte,de R$360 mil até R$3.6 M ,Não informado,5 à 9,3/10/1999,Não informado,Não informado,Não informado,Campina Grande,PB,Catolé,58.410-340,Rua Vigario Calixto,S/N,"Rua Vigario Calixto, Campina Grande - PB",-7.243378,-35.8791049,4
Web MÓdulos Pb ServiÇos De Tecnologia Ltda. - Epp,Web MÓdulos Pb ServiÇos De Tecnologia Ltda. - Epp,22.816.674/0001-00,SERVIÇOS,Atividades de Serviços de Tecnologia da informação e prestação de serviços de informática TI,Sociedade Empresária Limitada,Pequeno Porte,de R$360 mil até R$3.6 M ,Não informado,Não informado,7/9/2015,Não informado,Não informado,Não informado,João Pessoa,PB,Centro,58.013-440,Avenida Francisca Moura,S/N,"Avenida Francisca Moura, João Pessoa - PB",-7.1249567,-34.876649,2
Pragmatismo Comunicacoes E Servicos De Internet Ltda - Epp,Pragmatismo Comunicacoes E Servicos De Internet Ltda - Epp,19.854.158/0001-57,SERVIÇOS,Atividades de Serviços de Tecnologia da informação e prestação de serviços de informática TI,Sociedade Empresária Limitada,Pequeno Porte,de R$360 mil até R$3.6 M ,Não informado,Não informado,3/11/2014,Não informado,Não informado,Não informado,João Pessoa,PB,Manaíra,58.038-281,Avenida Esperanca,S/N,"Avenida Esperanca, João Pessoa - PB",-7.1059664,-34.8336358,4
Qualitare Agencia De Internet Ltda - Epp,Qualitare Agencia De Internet Ltda - Epp,08.512.470/0001-46,SERVIÇOS,Atividades de Serviços de Tecnologia da informação e prestação de serviços de informática TI,Sociedade Empresária Limitada,Pequeno Porte,de R$360 mil até R$3.6 M ,Não informado,Não informado,11/12/2006,Não informado,Não informado,Não informado,João Pessoa,PB,Tambauzinho,58.042-110,Avenida Vandik Pinto Filgueiras,S/N,"Avenida Vandik Pinto Filgueiras, João Pessoa - PB",-7.1228489,-34.8411082,4
Heva - Gestao E Tecnologia Ltda - Epp,Heva - Gestao E Tecnologia Ltda - Epp,08.627.015/0001-96,SERVIÇOS,Atividades de Serviços de Tecnologia da informação e prestação de serviços de informática TI,Sociedade Empresária Limitada,Pequeno Porte,de R$360 mil até R$3.6 M ,Não informado,Não informado,2/5/2007,Não informado,Não informado,Não informado,João Pessoa,PB,Centro,58.020-544,Praça Jo]ao Pessoa,S/N,"Praça Jo]ao Pessoa, João Pessoa - PB",-7.1211511,-34.8837067,4
Escorel Tecnologia Da Informacao Ltda - Epp,Escorel Tecnologia Da Informacao Ltda - Epp,11.334.107/0001-92,SERVIÇOS,Atividades de Serviços de Tecnologia da informação e prestação de serviços de informática TI,Sociedade Empresária Limitada,Pequeno Porte,de R$360 mil até R$3.6 M ,Não informado,Não informado,17/11/2009,Não informado,Não informado,Não informado,Campina Grande,PB,Jardim Paulistano,58.415-300,Rua Pedro Otavio De Farias Leite,S/N,"Rua Pedro Otavio De Farias Leite, Campina Grande - PB",-7.2449416,-35.8926445,4
Wla Services,Wla Servicos De Tecnologia Da Informacao Ltda - Epp,22.219.944/0001-97,SERVIÇOS,Atividades de Serviços de Tecnologia da informação e prestação de serviços de informática TI,Sociedade Empresária Limitada,Pequeno Porte,de R$360 mil até R$3.6 M ,Não informado,Não informado,4/9/2015,Não informado,(83) 3236-2299,Não informado,Lucena,PB,Fagundes,58.315-000,Rua Macom Francisco Alves Santos,220,"Rua Macom Francisco Alves Santos, Lucena - PB",-6.9478756,-34.8650937,4
Associacao Nacional Para Inclusao Digital-Anid,Associacao Nacional Para Inclusao Digital-Anid,09.194.914/0001-05,SERVIÇOS,Atividades de Serviços de Tecnologia da informação e prestação de serviços de informática TI,Associação Privada,Pequeno Porte,de R$360 mil até R$3.6 M ,Não informado,10 à 19,13/11/2007,"Percival Henriques De Souza Neto, Joao Bosco Da Costa, Valdemir Cesar Da Silva",(83) 3042-5793,vivianefleite@gmail.com,João Pessoa,PB,Bairro dos Estados,58.030-330,Avenida Piaui,207,"Avenida Piaui, João Pessoa - PB",-7.1150591,-34.8533478,4
Redesoft Sistemas,Robson De Oliveira Benedito - Epp,05.017.821/0001-54,SERVIÇOS,Atividades de Serviços de Tecnologia da informação e prestação de serviços de informática TI,Empresário (Individual),Pequeno Porte,de R$360 mil até R$3.6 M ,Não informado,10 à 49,4/10/2002,Não informado,(83) 8872-9642,robson@redesoft.com.br,João Pessoa,PB,Torre,58.040-068,Rua Silvio Almeida,739,"Rua Silvio Almeida, João Pessoa - PB",-7.1225454,-34.8532944,4
Informy Tecnologia,Informy Suporte Em Tecnologia Eireli - Epp,14.561.349/0001-07,SERVIÇOS,Atividades de Serviços de Tecnologia da informação e prestação de serviços de informática TI,Empresa Individual De Responsabilidade Limitada (De Natureza Empresária),Pequeno Porte,de R$360 mil até R$3.6 M ,"R$180,000.00",Não informado,31/10/2011,Maria Rita Duarte Cabral,(83) 8856-8996,contato@informy.com.br,Campina Grande,PB,São José,58.400-362,Rua Veterinario Americo Braga,33,"Rua Veterinario Americo Braga, Campina Grande - PB",-7.223432,-35.89099,2
Logon Servicos E Comercio Ltda - Epp,Logon Servicos E Comercio Ltda - Epp,02.389.614/0001-32,SERVIÇOS,Atividades de Serviços de Tecnologia da informação e prestação de serviços de informática TI,Sociedade Empresária Limitada,Pequeno Porte,de R$360 mil até R$3.6 M ,Não informado,até 4,: 04/03/1998,Não informado,Não informado,Não informado,João Pessoa,PB,Centro,58.013-000,Avenida Almirante Barroso,S/N,"Avenida Almirante Barroso, João Pessoa - PB",-7.1204049,-34.8736075,4
I.T. Information Technology Comercio E Servicos De Informatica Ltda - Epp,I.T. Information Technology Comercio E Servicos De Informatica Ltda - Epp,12.231.378/0001-85,SERVIÇOS,Atividades de Serviços de Tecnologia da informação e prestação de serviços de informática TI,Sociedade Empresária Limitada,Pequeno Porte,de R$360 mil até R$3.6 M ,Não informado,5 à 9,7/14/2010,Não informado,Não informado,Não informado,João Pessoa,PB,Centro,58.013-010,1817,S/N,"1817, João Pessoa - PB",-7.1206269,-34.8832011,4
Moriah Consultoria Ltda - Epp,Moriah Consultoria Ltda - Epp,11.042.557/0001-01,SERVIÇOS,Atividades de Serviços de Tecnologia da informação e prestação de serviços de informática TI,Sociedade Empresária Limitada,Pequeno Porte,de R$360 mil até R$3.6 M ,Não informado,5 à 9,8/10/2009,Não informado,Não informado,Não informado,João Pessoa,PB,Tambau,58.039-000,Avenida Epitacio Pessoa,S/N,"Avenida Epitacio Pessoa, João Pessoa - PB",-7.1196999,-34.8471031,4
Gtr Assessoria Empresarial Ltda - Epp,Gtr Assessoria Empresarial Ltda - Epp,00.125.635/0001-15,SERVIÇOS,Atividades de Serviços de Tecnologia da informação e prestação de serviços de informática TI,Sociedade Empresária Limitada,Pequeno Porte,de R$360 mil até R$3.6 M ,Não informado,Não informado,7/28/1994,Não informado,Não informado,Não informado,João Pessoa,PB,Bessa,58.037-050,Avenida Fernando Luiz Henrique,S/N,"Avenida Fernando Luiz Henrique, João Pessoa - PB",-7.0849425,-34.8343261,4
Triade Analise De Sistemas Ltda - Epp,Triade Analise De Sistemas Ltda - Epp,70.118.112/0001-27,SERVIÇOS,Atividades de Serviços de Tecnologia da informação e prestação de serviços de informática TI,Sociedade Empresária Limitada,Pequeno Porte,de R$360 mil até R$3.6 M ,Não informado,5 à 9,6/1/1994,Não informado,Não informado,Não informado,João Pessoa,PB,Tambauzinho,58.042-110,Rua Vandik Pinto Filgueiras,S/N,"Rua Vandik Pinto Filgueiras, João Pessoa - PB",-7.1228489,-34.8411082,4
"Essencial Solucoes Em Digitalizacao, Servicos E Consultoria Ltda - Epp","Essencial Solucoes Em Digitalizacao, Servicos E Consultoria Ltda - Epp",12.146.711/0001-58,SERVIÇOS,Atividades de Serviços de Tecnologia da informação e prestação de serviços de informática TI,Sociedade Empresária Limitada,Pequeno Porte,de R$360 mil até R$3.6 M ,Não informado,Não informado,: 09/06/2010,Não informado,Não informado,Não informado,Campina Grande,PB,Centro,58.400-052,Avenida Getulio Vargas,S/N,"Avenida Getulio Vargas, Campina Grande - PB",-7.2178311,-35.8913142,4
Rede Facil,Rede Facil Servicos Limitada - Epp,07.246.998/0001-58,SERVIÇOS,Atividades de Serviços de Tecnologia da informação e prestação de serviços de informática TI,Sociedade Empresária Limitada,Pequeno Porte,de R$360 mil até R$3.6 M ,Não informado,Não informado,3/4/2005,Não informado,(83) 3531-1993,celismorais@yahoo.com.br,Cajazeiras,PB,Centro,58.900-000,Avenida Presidente Joao Pessoa,57,"Avenida Presidente Joao Pessoa, Cajazeiras - PB",-6.8877249,-38.5625031,4
Vertex Tecnologia Ltda. - Epp,Vertex Tecnologia Ltda. - Epp,16.988.199/0001-48,SERVIÇOS,Atividades de Serviços de Tecnologia da informação e prestação de serviços de informática TI,Sociedade Empresária Limitada,Pequeno Porte,de R$360 mil até R$3.6 M ,Não informado,Não informado,9/24/2012,Não informado,Não informado,Não informado,João Pessoa,PB,Valentina de Figueiredo,58.064-360,Rua Emilia Mendonca Gomes,S/N,"Rua Emilia Mendonca Gomes, João Pessoa - PB",-7.2024866,-34.8434025,4
Tinus Informatica Ltda - Epp,Tinus Informatica Ltda - Epp,35.408.525/0001-45,SERVIÇOS,Atividades de Serviços de Tecnologia da informação e prestação de serviços de informática TI,Sociedade Empresária Limitada,Pequeno Porte,de R$360 mil até R$3.6 M ,Não informado,Não informado,6/28/1990,Não informado,(83) 3333-3333,Não informado,Cabedelo,PB,Renascer,58.108-012,Rodovia Br-230,11034,"Rodovia Br-230, Cabedelo - PB",-7.0395875,-34.8446341,4
Unimed Norte/Nordeste,Unimed Norte Nordeste-Federacao Interfederativa Das Sociedades Cooperativas De Trabalho Medico,09.237.009/0001-95,SERVIÇOS,"Atividades de serviços financeiros, previdência, seguros, resseguros e planos de saúde",Cooperativa,Grande,Acima de R$90 M,"R$3,911,514.00",100 à 249,9/15/1977,"Reginaldo Tavares De Albuquerque, Darival Bringel De Olinda, Vicente Justiniano Barbosa Neto, Robson Jorge De Lima",(83) 3048-2500,secretaria@unimed-nne.com.br,João Pessoa,PB,Mangabeira,58.055-000,Avenida Josefa Taveira,53,"Avenida Josefa Taveira, João Pessoa - PB",-7.1727392,-34.8398878,4
Lummertz Factoring,Futura - Sociedade De Fomento Mercantil Ltda,40.982.480/0001-58,SERVIÇOS,"Atividades de serviços financeiros, previdência, seguros, resseguros e planos de saúde",Sociedade Empresária Limitada,Pequeno Porte,de R$360 mil até R$3.6 M ,"R$1,064,832.00",até 4,5/1/1992,"Fabio Bauermann Lummertz, Fabio Bauermann Lummertz Filho",(83) 98809-7007,f.scm@hotmail.com,João Pessoa,PB,Mangabeira,58.055-001,Avenida Josefa Taveira,643,"Avenida Josefa Taveira, João Pessoa - PB",-7.1727392,-34.8398878,4
Interdental Odontologia Integrada Ltda,Interdental Odontologia Integrada Ltda,01.081.419/0001-88,SERVIÇOS,"Atividades de serviços financeiros, previdência, seguros, resseguros e planos de saúde",Sociedade Empresária Limitada,Pequeno Porte,de R$360 mil até R$3.6 M ,Não informado,Não informado,3/8/1996,"Gustavo Dantas Lima Lacerda, Juliana Lacerda Dias, Ana Helena Davila Lins Lacerda, Cleunaldo Clementino Palitot Segundo, Renata Martins Raposo De Alencar",(08) 3244-3550,Não informado,João Pessoa,PB,Bairro dos Estados,58.030-000,Avenida Piaui,57,"Avenida Piaui, João Pessoa - PB",-7.1150591,-34.8533478,4
Unidentis,Unidentis Assistencia Odontologica Ltda,04.222.989/0001-39,SERVIÇOS,"Atividades de serviços financeiros, previdência, seguros, resseguros e planos de saúde",Sociedade Empresária Limitada,Pequeno Porte,de R$360 mil até R$3.6 M ,"R$700,026.00",20 à 49,1/9/2001,"Patricia Borges Rodrigues Do Amaral, Gustavo Castro Do Amaral",(83) 3243-2553,jvporto@openline.com.br,João Pessoa,PB,Centro,58.013-260,Rua Coralio Soares De Oliveira,433,"Rua Coralio Soares De Oliveira, João Pessoa - PB",-7.1204514,-34.8741367,4
Dsd - Cadastro E Informacoes Ltda - Epp,Dsd - Cadastro E Informacoes Ltda - Epp,14.702.643/0001-91,SERVIÇOS,"Atividades de serviços financeiros, previdência, seguros, resseguros e planos de saúde",Sociedade Empresária Limitada,Pequeno Porte,de R$360 mil até R$3.6 M ,Não informado,Não informado,9/19/2011,Não informado,Não informado,Não informado,Campina Grande,PB,Centro,58.400-290,Rua Treze De Maio,S/N,"Rua Treze De Maio, Campina Grande - PB",-7.2210479,-35.8856038,4
Cristianne Tavares Da Cunha Melo - Epp,Cristianne Tavares Da Cunha Melo - Epp,04.333.540/0001-48,SERVIÇOS,"Atividades de serviços financeiros, previdência, seguros, resseguros e planos de saúde",Empresário (Individual),Pequeno Porte,de R$360 mil até R$3.6 M ,Não informado,Não informado,3/5/2001,Não informado,Não informado,Não informado,Campina Grande,PB,Centro,58.100-001,Avenida Floriano Peixoto,S/N,"Avenida Floriano Peixoto, Campina Grande - PB",-7.2285547,-35.9036625,4
Adir Batista Administradora E Servicos Eireli - Epp,Adir Batista Administradora E Servicos Eireli - Epp,19.679.917/0001-92,SERVIÇOS,"Atividades de serviços financeiros, previdência, seguros, resseguros e planos de saúde",Empresa Individual De Responsabilidade Limitada (De Natureza Empresária),Pequeno Porte,de R$360 mil até R$3.6 M ,Não informado,Não informado,2/7/2014,Não informado,Não informado,Não informado,João Pessoa,PB,Cabo Branco,58.045-010,Avenida Cabo Branco,S/N,"Avenida Cabo Branco, João Pessoa - PB",-7.1399053,-34.8166105,4
Sm Servicos Multiplos Ltda - Epp,Sm Servicos Multiplos Ltda - Epp,14.261.992/0001-15,SERVIÇOS,"Atividades de serviços financeiros, previdência, seguros, resseguros e planos de saúde",Sociedade Empresária Limitada,Pequeno Porte,de R$360 mil até R$3.6 M ,Não informado,Não informado,9/8/2011,Não informado,Não informado,Não informado,João Pessoa,PB,Varadouro,58.010-450,Rua Gama E Melo,S/N,"Rua Gama E Melo, João Pessoa - PB",-7.115565,-34.8882274,4
Jm Servicos E Recebimentos Financeiros,Jose Marcus Melo Da Silva - Epp,16.624.085/0001-19,SERVIÇOS,"Atividades de serviços financeiros, previdência, seguros, resseguros e planos de saúde",Empresário (Individual),Pequeno Porte,de R$360 mil até R$3.6 M ,Não informado,Não informado,8/2/2012,Não informado,(83) 8600-0310,sanneydethamires@hotmail.com,Bayeux,PB,Centro,58.306-001,Avenida Liberdade,3287,"Avenida Liberdade, Bayeux - PB",-7.1224175,-34.9145398,4
Cooprev,Coop De Econ E Cred Mutuo Dos Serv Do Inss Na Paraiba L,01.825.968/0001-10,SERVIÇOS,"Atividades de serviços financeiros, previdência, seguros, resseguros e planos de saúde",Cooperativa,Pequeno Porte,de R$360 mil até R$3.6 M ,Não informado,10  à 19,5/15/1997,"Alexandre Miranda Cruz Camelo Pessoa, Rita De Cassia Da Penha Rodrigues, Joao Bernardino De Assis Neto, Heloisa Helena De Menezes Maciel Guimaraes, Giovanni Da Costa Falcao, Maria Aparecida Mouzinho Tenorio",(83) 3513-5358,cooprev-pb@sicoobne.com.br,João Pessoa,PB,Centro,58.010-820,Rua Duque De Caixas,260,"Rua Duque De Caixas, João Pessoa - PB",-7.1192533,-34.8839499,4
Atrium Administradora E Corretora De Seguros Ltda - Epp,Atrium Administradora E Corretora De Seguros Ltda - Epp,41.121.724/0001-70,SERVIÇOS,"Atividades de serviços financeiros, previdência, seguros, resseguros e planos de saúde",Sociedade Empresária Limitada,Pequeno Porte,de R$360 mil até R$3.6 M ,Não informado,Não informado,8/1/1992,"Marcilio Otavio Nascimento Filho, Alessandra Benevides Silva Nascimento",(083) 2212-123,Não informado,João Pessoa,PB,Centro,58.013-000,Avenida Almirante Barroso,438,"Avenida Almirante Barroso, João Pessoa - PB",-7.1204049,-34.8736075,4
Comseder Cooperativa De Assistencia Medica Dos Servidores Da Suplan E Do Der Ltda,Comseder Cooperativa De Assistencia Medica Dos Servidores Da Suplan E Do Der Ltda,70.094.578/0001-30,SERVIÇOS,"Atividades de serviços financeiros, previdência, seguros, resseguros e planos de saúde",Cooperativa,Pequeno Porte,de R$360 mil até R$3.6 M ,Não informado,20 à 49,11/1/1993,Francisco Fernandes Lisboa,Não informado,Não informado,João Pessoa,PB,Centro,58.013-470,Avenida Maximiano Figueiredo,311,"Avenida Maximiano Figueiredo, João Pessoa - PB",-7.1225864,-34.8719931,4
Rua S Corretora De Seguros E Representacoes Ltda - Epp,Rua S Corretora De Seguros E Representacoes Ltda - Epp,40.964.272/0001-26,SERVIÇOS,"Atividades de serviços financeiros, previdência, seguros, resseguros e planos de saúde",Sociedade Empresária Limitada,Pequeno Porte,de R$360 mil até R$3.6 M ,Não informado,até 4,12/1/1991,"Roberto Luiz Pimentel Costa Junior, Roberto Luiz Pimentel Costa",(83) 3513-8140,j.fernando@hs24.com.br,João Pessoa,PB,Bairro dos Estados,58.028-070,Rua Coronel Manoel Henrique De Sa Filho,45,"Rua Coronel Manoel Henrique De Sa Filho, João Pessoa - PB",-7.1104297,-34.8565087,4
Cabo Branco Seguros,Cabo Branco Administracao E Corretagem De Seguros Ltda - Epp,40.966.830/0001-92,SERVIÇOS,"Atividades de serviços financeiros, previdência, seguros, resseguros e planos de saúde",Sociedade Empresária Limitada,Pequeno Porte,de R$360 mil até R$3.6 M ,"R$25,000.00",até 4,1/1/1992,"Aristides Madureira Barros Filho, Priscyla Goncalves De Sa Lima Cordao",(83) 3244-7001,Não informado,João Pessoa,PB,Bairro dos Estados,58.030-000,Avenida Epitacio Pessoa,475,"Avenida Epitacio Pessoa, João Pessoa - PB",-7.1196999,-34.8471031,4
Go Up Agente Autonomo De Investimentos Eireli - Epp,Go Up Agente Autonomo De Investimentos Eireli - Epp,10.875.775/0001-64,SERVIÇOS,"Atividades de serviços financeiros, previdência, seguros, resseguros e planos de saúde",Empresa Individual De Responsabilidade Limitada (De Natureza Empresária),Pequeno Porte,de R$360 mil até R$3.6 M ,"R$88,000.00",Não informado,6/5/2009,Jose Walter Forte Neto,(83) 8814-8800,joacijunior68@gmail.com,João Pessoa,PB,Bairro dos Estados,58.030-090,Avenida Minas Gerais,534,"Avenida Minas Gerais, João Pessoa - PB",-7.1145348,-34.8553378,4
Jas Servicos De Franchising,"Jas ServiÇos, AdministraÇÃo De Franchising E Holdings Ltda - Epp",22.724.754/0001-27,SERVIÇOS,"Atividades de serviços financeiros, previdência, seguros, resseguros e planos de saúde",Sociedade Empresária Limitada,Pequeno Porte,de R$360 mil até R$3.6 M ,"R$50,000.00",Não informado,6/25/2015,"Jose Adelmano Alves Da Silva, Willermano Pereira Silva",(83) 8806-6736,Não informado,João Pessoa,PB,Manaíra,58.038-381,Avenida Sape,1221,"Avenida Sape, João Pessoa - PB",-7.1064211,-34.8358147,4
Cooperativa De Economia E Credito Mutuo Dos Servidores Publicos Estaduais Da Paraiba Creds Ltda,Cooperativa De Economia E Credito Mutuo Dos Servidores Publicos Estaduais Da Paraiba Creds Ltda,03.373.150/0001-39,SERVIÇOS,"Atividades de serviços financeiros, previdência, seguros, resseguros e planos de saúde",Cooperativa,Pequeno Porte,de R$360 mil até R$3.6 M ,Não informado,10 à 19,9/2/1999,"Antonio Fernando De Lemos Coutinho, Guilherme Marconi Leite Matos, Hermani Felinto De Brito, Anderson Da Silva Goncalves, Durval Antonio De Araujo, Marcelo Damasceno Ferreira",(83) 3244-1208,creds-pb@sicoobne.com.br,João Pessoa,PB,Torre,58.040-000,Avenida Epitacio Pessoa,1024,"Avenida Epitacio Pessoa, João Pessoa - PB",-7.1196999,-34.8471031,4
Jf-Corretora De Seguros Ltda - Epp,Jf-Corretora De Seguros Ltda - Epp,09.258.732/0001-50,SERVIÇOS,"Atividades de serviços financeiros, previdência, seguros, resseguros e planos de saúde",Sociedade Empresária Limitada,Pequeno Porte,de R$360 mil até R$3.6 M ,Não informado,Não informado,4/10/1985,"Claudia Helena Oliveira De Souto, Joao Fonseca De Oliveira, Sylvia Rachel De Oliveira Freire",(83) 8819-3470,Não informado,João Pessoa,PB,Torre,58.040-020,Avenida Juarez Tavora,1007,"Avenida Juarez Tavora, João Pessoa - PB",-7.123221,-34.8609003,4
Unimed Joao Pessoa Corretora De Seguros Ltda - Epp,Unimed Joao Pessoa Corretora De Seguros Ltda - Epp,41.144.619/0001-57,SERVIÇOS,"Atividades de serviços financeiros, previdência, seguros, resseguros e planos de saúde",Sociedade Empresária Limitada,Pequeno Porte,de R$360 mil até R$3.6 M ,Não informado,10 à 19,11/1/1992,"Claudia Helena Oliveira De Souto, Unimed Joao Pessoa Cooperativa De Trabalho Medico",(83) 2160-419,claudia@unimedjp.com.br,João Pessoa,PB,Torre,58.040-140,Rua Marechal Deodoro,420,"Rua Marechal Deodoro, João Pessoa - PB",-7.1211631,-34.8695903,4
Unimed Paraiba Fed Das Soc Coop De Trabalho Medico,Unimed Paraiba Fed Das Soc Coop De Trabalho Medico,40.960.189/0001-89,SERVIÇOS,"Atividades de serviços financeiros, previdência, seguros, resseguros e planos de saúde",Cooperativa,Pequeno Porte,de R$360 mil até R$3.6 M ,Não informado,20 à 49,11/1/1991,"Aldrovando Grisi, Francisco Vieira De Oliveira, Jose Vanderlite Alves, Demostenes Paredes Cunha Lima",Não informado,Não informado,João Pessoa,PB,Torre,58.040-240,Avenida Carneiro Da Cunha,89,"Avenida Carneiro Da Cunha, João Pessoa - PB",-7.1260701,-34.8619695,4
Lafer Administradora E Corretora De Seguros Ltda - Epp,Lafer Administradora E Corretora De Seguros Ltda - Epp,00.199.882/0001-66,SERVIÇOS,"Atividades de serviços financeiros, previdência, seguros, resseguros e planos de saúde",Sociedade Simples Limitada,Pequeno Porte,de R$360 mil até R$3.6 M ,"R$1,000.00",Não informado,9/14/1994,"Antonio Augusto Resende Ribeiro, Alexandre Rezende Ribeiro, Alfredo Luiz Resende Ribeiro",(31) 3485-6657,processos@acfcontabilidade.com.br,João Pessoa,PB,Cabo Branco,58.045-000,Avenida Presidente Epitacio Pessoa,4840,"Avenida Presidente Epitacio Pessoa, João Pessoa - PB",-7.1196999,-34.8471031,4
Athos Servicos De Participacoes E Empreendimentos Ltda - Epp,Athos Servicos De Participacoes E Empreendimentos Ltda - Epp,26.947.447/0001-66,SERVIÇOS,"Atividades de serviços financeiros, previdência, seguros, resseguros e planos de saúde",Sociedade Empresária Limitada,Pequeno Porte,de R$360 mil até R$3.6 M ,"R$185,000.00",Não informado,1/25/2017,"Stanley Luiz Dore, Danyella Gentil De Lavor Dore, Raoni Padilha Dore, Bruno Gentil Dore",(11) 8753-0904,stanley@dore.com.br,João Pessoa,PB,Distrito Industrial,58.082-030,Avenida Parque,1330,"Avenida Parque, João Pessoa - PB",-7.1731927,-34.9074471,4
Fce Sugestoes De Negocios,Karla Cristiane Nascimento De Souza - Epp,25.102.281/0001-14,SERVIÇOS,"Atividades de serviços financeiros, previdência, seguros, resseguros e planos de saúde",Empresário (Individual),Pequeno Porte,de R$360 mil até R$3.6 M ,"R$30,000.00",Não informado,6/29/2016,Não informado,(83) 8886-6256,fcesn@yahoo.com.br,Bayeux,PB,Jardim São Severino,58.306-450,Rua Neide Alves Da Silva,133,"Rua Neide Alves Da Silva, Bayeux - PB",-7.1235315,-34.9313365,4
Sicoob Borborema Paraibano,Cooperativa De Credito De Livre Admissao Da Borborema E Agreste Paraibano - Sicoob Borborema Paraibano,11.907.520/0001-07,SERVIÇOS,"Atividades de serviços financeiros, previdência, seguros, resseguros e planos de saúde",Cooperativa,Pequeno Porte,de R$360 mil até R$3.6 M ,"R$503,000.00",20 à 49,5/5/2010,"Alankardec Cavalcanti De Moraes, Alexandre Jose Beltrao Moura, Aluisio Salviano De Farias, Arquelau Aires Guimaraes, Eliezio Bezerra De Farias, Evandro Lyra Pessoa, Francisco De Assis Veras, Francisco Vieira De Andrade, Hugo De Mattos Brito Junior, Ivandro Moura Cunha Lima Filho, Joao Ferreira Nobrega, Joao Ronaldo Claudino Braga, Jose Antonio Salviano De Farias, Jose Bonifacio Vidal De Negreiros, Jose De Arimatea Rocha, Luis Alberto Macedo Lyra, Maria Elisabeth Ferreira Guimaraes, Mario Linhares Pordeus Filho, Paulo Antonio Medeiros Silva, Paulo Cezar De Barros Martins, Renato Dias Dos Santos Rocha, Vamberto De Farias Leal, Vanduhi De Farias Leal, Vijay Pal Singh Nain, Yara Macedo Lyra, Zouraide Silveira",(83) 3322-7464,Não informado,Campina Grande,PB,Centro,58.400-025,Rua Presidente Epitacio Pessoa,221,"Rua Presidente Epitacio Pessoa, Campina Grande - PB",-7.2151261,-35.8873461,4
Krol Corretora De Seguros Ltda - Epp,Krol Corretora De Seguros Ltda - Epp,41.135.930/0001-30,SERVIÇOS,"Atividades de serviços financeiros, previdência, seguros, resseguros e planos de saúde",Sociedade Empresária Limitada,Pequeno Porte,de R$360 mil até R$3.6 M ,"R$50,000.00",até 4,3/26/1993,"Jair De Sousa Reis, Jorge Henrique Lima Reis",(83) 3342-2007,Não informado,Campina Grande,PB,Centro,58.400-120,Rua Joao Leoncio,26,"Rua Joao Leoncio, Campina Grande - PB",-7.21525,-35.8847192,4
Sicredi Alto Sertao Paraibano,Cooperativa De Credito Sicredi Alto Sertao Paraibano - Sicredi Alto Sertao Paraibano,09.343.038/0001-31,SERVIÇOS,"Atividades de serviços financeiros, previdência, seguros, resseguros e planos de saúde",Cooperativa,Pequeno Porte,de R$360 mil até R$3.6 M ,"R$220,000.00",10 à 19,1/30/2008,"Gilberto Gomes Sarmento, Andre Cabral De Morais, Juscelio Trajano De Sousa",(83) 3522-1334,Não informado,Sousa,PB,Centro,58.800-050,Rua Cel Jose Gomes De Sa,16,"Rua Cel Jose Gomes De Sa, Sousa - PB",-6.7588079,-38.2287932,4
Garantia Seguros Joao Pessoa,Garantia Seguros Joao Pessoa - Assessoria De Seguros Ltda - Epp,06.106.428/0001-08,SERVIÇOS,"Atividades de serviços financeiros, previdência, seguros, resseguros e planos de saúde",Sociedade Empresária Limitada,Pequeno Porte,de R$360 mil até R$3.6 M ,"R$20,000.00",Não informado,2/17/2004,"Adjamir Pontes Cesar, Agnes Maria Oliveira Dos Santos, Hodson Menezes Filho",(83) 3237-4500,fjcontabil@fjascontabil.com.br,João Pessoa,PB,Torre,58.040-400,Avenida Sinesio Guimaraes,301,"Avenida Sinesio Guimaraes, João Pessoa - PB",-7.1284673,-34.866796,2
Mrca Participacoes Ltda - Epp,Mrca Participacoes Ltda - Epp,27.019.084/0001-61,SERVIÇOS,"Atividades de serviços financeiros, previdência, seguros, resseguros e planos de saúde",Sociedade Empresária Limitada,Pequeno Porte,de R$360 mil até R$3.6 M ,"R$650,000.00",Não informado,2/2/2017,"Marcos Rogerio Costa De Arruda Filho, Marcos Rogerio Costa De Arruda",(83) 3246-1566,Não informado,João Pessoa,PB,Manaíra,58.038-242,Avenida Pombal,1633,"Avenida Pombal, João Pessoa - PB",-7.1051296,-34.8334243,4
Cassio Chaves Corretora De Seguros Ltda - Epp,Cassio Chaves Corretora De Seguros Ltda - Epp,00.328.497/0001-71,SERVIÇOS,"Atividades de serviços financeiros, previdência, seguros, resseguros e planos de saúde",Sociedade Empresária Limitada,Pequeno Porte,de R$360 mil até R$3.6 M ,Não informado,10 à 19,12/5/1994,"Cassio Tulio Santiago Chaves, Flavio Cesar Santiago Chaves",(83) 2444-188,Não informado,João Pessoa,PB,Jardim 13 de maio,58.030-000,Avenida Santa Catarina,755,"Avenida Santa Catarina, João Pessoa - PB",-7.1156162,-34.86104,2
Carla Corretora De Seguros Ltda - Epp,Carla Corretora De Seguros Ltda - Epp,08.684.250/0001-08,SERVIÇOS,"Atividades de serviços financeiros, previdência, seguros, resseguros e planos de saúde",Sociedade Empresária Limitada,Pequeno Porte,de R$360 mil até R$3.6 M ,"R$11,000.00",10 à 19,8/17/1972,"Audhemar Peregrino Junior, Ana Lucia Bezerra Florentino, Alexandre Lacet Peregrino",Não informado,Não informado,João Pessoa,PB,Bairro dos Estados,58.030-000,Avenida Maranhao,182,"Avenida Maranhao, João Pessoa - PB",-7.1150854,-34.8553413,4
Bricia Corretora De Seguros Ltda - Epp,Bricia Corretora De Seguros Ltda - Epp,02.041.151/0001-13,SERVIÇOS,"Atividades de serviços financeiros, previdência, seguros, resseguros e planos de saúde",Sociedade Empresária Limitada,Pequeno Porte,de R$360 mil até R$3.6 M ,"R$20,000.00",até 4,8/18/1997,"Antonio Agripino Neto, Francisco Edgler De Oliveira Rego",Não informado,Não informado,Patos,PB,Centro,58.700-070,Avenida Dr Pedro Firmino,111,"Avenida Dr Pedro Firmino, Patos - PB",-7.0237551,-37.2716204,4
Marcilio Admi E Corretora De Seguros Ltda - Epp,Marcilio Admi E Corretora De Seguros Ltda - Epp,35.503.796/0001-80,SERVIÇOS,"Atividades de serviços financeiros, previdência, seguros, resseguros e planos de saúde",Sociedade Empresária Limitada,Pequeno Porte,de R$360 mil até R$3.6 M ,"R$10,000.00",20 à 49,3/1/1991,"Alessandra Benevides Silva Nascimento, Marcilio Otavio Nascimento Filho",(83) 3041-5558,Não informado,João Pessoa,PB,Miramar,58.032-101,Avenida Senador Ruy Carneiro,512,"Avenida Senador Ruy Carneiro, João Pessoa - PB",-7.11475,-34.8333037,4
Uniao Dos Corretores Cgp Corretora De Seguros Ltda - Epp,Uniao Dos Corretores Cgp Corretora De Seguros Ltda - Epp,27.093.150/0001-43,SERVIÇOS,"Atividades de serviços financeiros, previdência, seguros, resseguros e planos de saúde",Sociedade Empresária Limitada,Pequeno Porte,de R$360 mil até R$3.6 M ,"R$20,000.00",Não informado,2/13/2017,"Flaviano De Lucena Oliveira, Allison Moreira Dias, Ricardo Augusto Marinho De Lima, Fabiano Farias Barros",(83) 3512-8200,Não informado,João Pessoa,PB,Bairro dos Estados,58.030-001,Avenida Presidente Epitacio Pessoa,753,"Avenida Presidente Epitacio Pessoa, João Pessoa - PB",-7.1196999,-34.8471031,4
Lucati - Corretora De Seguros Ltda - Epp,Lucati - Corretora De Seguros Ltda - Epp,07.090.935/0001-55,SERVIÇOS,"Atividades de serviços financeiros, previdência, seguros, resseguros e planos de saúde",Sociedade Empresária Limitada,Pequeno Porte,de R$360 mil até R$3.6 M ,Não informado,até 4,22/11/2004,"Jair Alves Da Rocha, Antomir Pereira Da Silva",(83) 3226-4770,Não informado,João Pessoa,PB,Tambaú,58.039-110,Avenida Nossa Senhora Dos Navegantes,415,"Avenida Nossa Senhora Dos Navegantes, João Pessoa - PB",-7.1152041,-34.8247649,4
Inove Consultoria Atuarial Ltda - Epp,Inove Consultoria Atuarial Ltda - Epp,24.756.013/0001-53,SERVIÇOS,"Atividades de serviços financeiros, previdência, seguros, resseguros e planos de saúde",Sociedade Empresária Limitada,Pequeno Porte,de R$360 mil até R$3.6 M ,Não informado,Não informado,5/9/2016,Não informado,Não informado,Não informado,João Pessoa,PB,Tambiá,58.020-544,Da Independencia,S/N,"Da Independencia, João Pessoa - PB",-7.1197389,-34.8705673,4
Promove Administradora De Consorcios Ltda - Epp,Promove Administradora De Consorcios Ltda - Epp,09.111.444/0001-79,SERVIÇOS,"Atividades de serviços financeiros, previdência, seguros, resseguros e planos de saúde",Sociedade Empresária Limitada,Pequeno Porte,de R$360 mil até R$3.6 M ,Não informado,Não informado,3/2/1967,Não informado,Não informado,Não informado,João Pessoa,PB,Expedicionários,58.041-010,Avenida Expedicionarios,S/N,"Avenida Expedicionarios, João Pessoa - PB",-7.1246081,-34.8552223,4
Afj Administracoes E Participacoes Ltda - Epp,Afj Administracoes E Participacoes Ltda - Epp,23.543.149/0001-12,SERVIÇOS,"Atividades de serviços financeiros, previdência, seguros, resseguros e planos de saúde",Sociedade Empresária Limitada,Pequeno Porte,de R$360 mil até R$3.6 M ,"R$966,877.60",Não informado,26/10/2015,"Juan Gustavo Belmont De Souza, Fernando Antonio Lima De Souza Filho, Ayana Madalena Belmont De Souza Falcao",(83) 8808-0013,juanbelmont@hotmail.com,Conde,PB,Distrito Industrial,58.322-000,Rodovia Br 101 Km 101,S/N,"Rodovia Br 101 Km 101, Conde - PB",-19.7507129,-40.3799172,4
Vale Do Mamanguape Corretora De Seguros Ltda - Epp,Vale Do Mamanguape Corretora De Seguros Ltda - Epp,23.572.511/0001-83,SERVIÇOS,"Atividades de serviços financeiros, previdência, seguros, resseguros e planos de saúde",Sociedade Empresária Limitada,Pequeno Porte,de R$360 mil até R$3.6 M ,"R$15,000.00",Não informado,29/10/2015,"Domingos Chagas Neto Junior, Thereza Helena Gabinio Borges Chagas",(83) 9982-7671,Não informado,Baía da Traição,PB,Centro,58.295-000,Rua Jose Ednilson De Medeiros,410,"Rua Jose Ednilson De Medeiros, Baía da Traição - PB",-6.6884816,-34.9338239,4
Unidas Corretora De Seguros Ltda - Epp,Unidas Corretora De Seguros Ltda - Epp,40.944.365/0001-99,SERVIÇOS,"Atividades de serviços financeiros, previdência, seguros, resseguros e planos de saúde",Sociedade Empresária Limitada,Pequeno Porte,de R$360 mil até R$3.6 M ,Não informado,Não informado,11/1/1991,"Marcelo Da Costa Nobrega, Fernando Luiz Costa Da Nobrega",Não informado,Não informado,Campina Grande,PB,Centro,58.100-670,Rua Elias Asfora,17,"Rua Elias Asfora, Campina Grande - PB",-7.2231449,-35.8796961,4
Olimpo - Empreendimentos Imobiliarios Ltda - Epp,Olimpo - Empreendimentos Imobiliarios Ltda - Epp,09.552.486/0001-45,SERVIÇOS,Atividades Imobiliárias e de Aluguel,,Pequeno Porte,de R$360 mil até R$3.6 M ,,,,,,,São Miguel de Itaipu,PB,Zona Rural,,Fazenda Fazenda Beleza,,"Fazenda Fazenda Beleza, São Miguel de Itaipu - PB",-7.250421,-35.2087293,4
Ribeiro Empreendimentos Imobiliarios Spe Ltda - Epp,Ribeiro Empreendimentos Imobiliarios Spe Ltda - Epp,26.690.201/0001-51,SERVIÇOS,Atividades Imobiliárias e de Aluguel,,Pequeno Porte,de R$360 mil até R$3.6 M ,,,,,,,Jacaraú,PB,Centro,,Rua Coronel Antonio Soares De Farias,,"Rua Coronel Antonio Soares De Farias, Jacaraú - PB",-6.61581,-35.2912363,4
Morar Bem Empreendimentos Imobiliarios Eireli - Epp,Morar Bem Empreendimentos Imobiliarios Eireli - Epp,20.494.623/0001-75,SERVIÇOS,Atividades Imobiliárias e de Aluguel,,Pequeno Porte,de R$360 mil até R$3.6 M ,,,,,,,Patos,PB,Centro,,Rua Felizardo Leite,,"Rua Felizardo Leite, Patos - PB",-7.0297644,-37.2833148,4
Garcia Negocios Imobiliarios Ltda - Epp,Garcia Negocios Imobiliarios Ltda - Epp,09.193.509/0001-72,SERVIÇOS,Atividades Imobiliárias e de Aluguel,,Pequeno Porte,de R$360 mil até R$3.6 M ,,,,,,,João Pessoa,PB,Tambaú,,Avenida Senador Rui Carneiro,,"Avenida Senador Rui Carneiro, João Pessoa - PB",-7.11475,-34.8333037,4
Ernx Energias Renovaveis Do Nordeste Ltda - Epp,Ernx Energias Renovaveis Do Nordeste Ltda - Epp,11.878.123/0001-46,SERVIÇOS,Atividades Imobiliárias e de Aluguel,,Pequeno Porte,de R$360 mil até R$3.6 M ,,,,,,,Bayeux,PB,Centro,,Avenida Liberdade,,"Avenida Liberdade, Bayeux - PB",-7.1224175,-34.9145398,4
Loteamento Siqueira Cavalcante Ltda - Epp,Loteamento Siqueira Cavalcante Ltda - Epp,19.597.470/0001-02,SERVIÇOS,Atividades Imobiliárias e de Aluguel,,Pequeno Porte,de R$360 mil até R$3.6 M ,,,,,,,Monteiro,PB,Centro,,Rua Jose Torres,,"Rua Jose Torres, Monteiro - PB",-7.8896686,-37.1302256,4
Damasio Consultoria E Venda De Imoveis Ltda - Epp,Damasio Consultoria E Venda De Imoveis Ltda - Epp,08.599.847/0001-46,SERVIÇOS,Atividades Imobiliárias e de Aluguel,,Pequeno Porte,de R$360 mil até R$3.6 M ,,,,,,,João Pessoa,PB,Miramar,,Avenida Senador Ruy Carneiro,,"Avenida Senador Ruy Carneiro, João Pessoa - PB",-7.11475,-34.8333037,4
Pires Empreendimentos Ltda - Epp,Pires Empreendimentos Ltda - Epp,04.398.416/0001-60,SERVIÇOS,Atividades Imobiliárias e de Aluguel,,Pequeno Porte,de R$360 mil até R$3.6 M ,,,,,,,Campina Grande,PB,Catolé,,Rua Joao Quirino,,"Rua Joao Quirino, Campina Grande - PB",-7.2350337,-35.8795405,4
Gatha-8x Incorporacao De Imoveis Ltda - Epp,Gatha-8x Incorporacao De Imoveis Ltda - Epp,17.243.624/0001-32,SERVIÇOS,Atividades Imobiliárias e de Aluguel,,Pequeno Porte,de R$360 mil até R$3.6 M ,,,,,,,Campina Grande,PB,Centro,,Rua Desembargador Trindade,,"Rua Desembargador Trindade, Campina Grande - PB",-7.2237799,-35.8840185,4
Castelo Branco Servicos Imobiliarios Ltda - Epp,Castelo Branco Servicos Imobiliarios Ltda - Epp,17.766.281/0001-90,SERVIÇOS,Atividades Imobiliárias e de Aluguel,,Pequeno Porte,de R$360 mil até R$3.6 M ,,,,,,,João Pessoa,PB,Castelo Branco,,Avenida Apolonio Da Nobrega,,"Avenida Apolonio Da Nobrega, João Pessoa - PB",-7.1311183,-34.8454026,4
Mm2 Administracao Patrimonial Ltda - Epp,Mm2 Administracao Patrimonial Ltda - Epp,11.738.202/0001-51,SERVIÇOS,Atividades Imobiliárias e de Aluguel,,Pequeno Porte,de R$360 mil até R$3.6 M ,,,,,,,Campina Grande,PB,Universitário,,Rua Aprigio Veloso,,"Rua Aprigio Veloso, Campina Grande - PB",-7.2170802,-35.9084898,4
M W S Empreendimentos Imobiliarios Ltda - Epp,M W S Empreendimentos Imobiliarios Ltda - Epp,16.895.086/0001-06,SERVIÇOS,Atividades Imobiliárias e de Aluguel,,Pequeno Porte,de R$360 mil até R$3.6 M ,,,,,,,Campina Grande,PB,Alto Branco,,Rua Napoleao Laureano,,"Rua Napoleao Laureano, Campina Grande - PB",-7.2110008,-35.8822814,4
Pb Empreendimentos Imobiliarios Ltda - Epp,Pb Empreendimentos Imobiliarios Ltda - Epp,05.620.921/0001-70,SERVIÇOS,Atividades Imobiliárias e de Aluguel,,Pequeno Porte,de R$360 mil até R$3.6 M ,,,,,,,Campina Grande,PB,Prata,,Rua Indios Cariris,,"Rua Indios Cariris, Campina Grande - PB",-7.2184311,-35.8893887,4
Innova Administradora De Propriedade Imobiliaria Ltda - Epp,Innova Administradora De Propriedade Imobiliaria Ltda - Epp,22.679.227/0001-48,SERVIÇOS,Atividades Imobiliárias e de Aluguel,,Pequeno Porte,de R$360 mil até R$3.6 M ,,,,,,,Campina Grande,PB,Estação Velha,,Rua Vice-Prefeito Antonio De Carvalho Sousa,,"Rua Vice-Prefeito Antonio De Carvalho Sousa, Campina Grande - PB",-7.2429873,-35.9103584,4
Campoa & Ribeiro Ltda - Epp,Campoa & Ribeiro Ltda - Epp,14.905.497/0001-00,SERVIÇOS,Atividades Imobiliárias e de Aluguel,,Pequeno Porte,de R$360 mil até R$3.6 M ,,,,,,,Campina Grande,PB,Santa Cruz,,Avenida Dinamerica Correia,,"Avenida Dinamerica Correia, Campina Grande - PB",-7.2381523,-35.9110382,4
Ews AdministraÇÃo De Propriedade Imobiliaria - Eireli - Epp,Ews AdministraÇÃo De Propriedade Imobiliaria - Eireli - Epp,21.784.795/0001-46,SERVIÇOS,Atividades Imobiliárias e de Aluguel,,Pequeno Porte,de R$360 mil até R$3.6 M ,,,,,,,Campina Grande,PB,Bodocongo,,Rua Portugal,,"Rua Portugal, Campina Grande - PB",-7.2144974,-35.9209153,4
Rmo Servicos De Apoio Administrativo Ltda - Epp,Rmo Servicos De Apoio Administrativo Ltda - Epp,05.092.667/0001-85,SERVIÇOS,Atividades Imobiliárias e de Aluguel,,Pequeno Porte,de R$360 mil até R$3.6 M ,,,,,,,Campina Grande,PB,Catolé,,Avenida Severino Bezerra Cabral,,"Avenida Severino Bezerra Cabral, Campina Grande - PB",-7.2390598,-35.86361,2
Msm Empreendimentos Ltda - Epp,Msm Empreendimentos Ltda - Epp,03.362.808/0001-07,SERVIÇOS,Atividades Imobiliárias e de Aluguel,,Pequeno Porte,de R$360 mil até R$3.6 M ,,,,,,,João Pessoa,PB,Centro,,1817,,"1817, João Pessoa - PB",-7.1206269,-34.8832011,4
Fjd Administracao De Bens Ltda - Epp,Fjd Administracao De Bens Ltda - Epp,21.289.403/0001-72,SERVIÇOS,Atividades Imobiliárias e de Aluguel,,Pequeno Porte,de R$360 mil até R$3.6 M ,,,,,,,João Pessoa,PB,Manaíra,,Avenida Pombal,,"Avenida Pombal, João Pessoa - PB",-7.1051296,-34.8334243,4
Wrmf Atividades Imobiliarias Ltda - Epp,Wrmf Atividades Imobiliarias Ltda - Epp,18.529.186/0001-36,SERVIÇOS,Atividades Imobiliárias e de Aluguel,,Pequeno Porte,de R$360 mil até R$3.6 M ,,,,,,,João Pessoa,PB,Tambauzinho,,Avenida Epitacio Pessoa,,"Avenida Epitacio Pessoa, João Pessoa - PB",-7.1196999,-34.8471031,4
"Chacara Das Americas, Incorporacoes Imbiliarias Ltda. - Epp","Chacara Das Americas, Incorporacoes Imbiliarias Ltda. - Epp",11.438.452/0001-76,SERVIÇOS,Atividades Imobiliárias e de Aluguel,,Pequeno Porte,de R$360 mil até R$3.6 M ,,,,,,,João Pessoa,PB,Torre,,Rua Lourenco Fernandes,,"Rua Lourenco Fernandes, João Pessoa - PB",-7.1226891,-34.8703121,4
Latitude Negocios Imobiliarios Ltda - Epp,Latitude Negocios Imobiliarios Ltda - Epp,19.065.243/0001-36,SERVIÇOS,Atividades Imobiliárias e de Aluguel,,Pequeno Porte,de R$360 mil até R$3.6 M ,,,,,,,João Pessoa,PB,Aeroclube,,Rua Pastor Josebias Fialho Marinho,,"Rua Pastor Josebias Fialho Marinho, João Pessoa - PB",-7.0859889,-34.8414338,4
M Ramos Imobiliaria Ltda - Epp,M Ramos Imobiliaria Ltda - Epp,12.676.763/0001-36,SERVIÇOS,Atividades Imobiliárias e de Aluguel,,Pequeno Porte,de R$360 mil até R$3.6 M ,,,,,,,João Pessoa,PB,Tambaú,,Avenida Profa Maria Sales,,"Avenida Profa Maria Sales, João Pessoa - PB",-7.1150103,-34.8256667,4
Santa Terezinha Locacoes De Imoveis Ltda - Epp,Santa Terezinha Locacoes De Imoveis Ltda - Epp,02.352.069/0001-00,SERVIÇOS,Atividades Imobiliárias e de Aluguel,,Pequeno Porte,de R$360 mil até R$3.6 M ,,,,,,,João Pessoa,PB,Altiplano Cabo Branco,,Rua Desembargador Rivaldo Pereira,,"Rua Desembargador Rivaldo Pereira, João Pessoa - PB",-7.1301842,-34.8300736,4
Silveira E Porto Incorporacoes Ltda - Epp,Silveira E Porto Incorporacoes Ltda - Epp,19.870.151/0001-29,SERVIÇOS,Atividades Imobiliárias e de Aluguel,,Pequeno Porte,de R$360 mil até R$3.6 M ,,,,,,,João Pessoa,PB,Centro,,Rua Quintino Bocaiuva,,"Rua Quintino Bocaiuva, João Pessoa - PB",-7.1243027,-34.8704434,4
Project Imoveis Ltda - Epp,Project Imoveis Ltda - Epp,14.524.604/0001-41,SERVIÇOS,Atividades Imobiliárias e de Aluguel,,Pequeno Porte,de R$360 mil até R$3.6 M ,,,,,,,João Pessoa,PB,Tambiá,,Avenida Deputado Odon Bezerra,,"Avenida Deputado Odon Bezerra, João Pessoa - PB",-7.1151481,-34.879769,2
Medeiros Corretor De Imoveis Ltda - Epp,Medeiros Corretor De Imoveis Ltda - Epp,20.176.784/0001-10,SERVIÇOS,Atividades Imobiliárias e de Aluguel,,Pequeno Porte,de R$360 mil até R$3.6 M ,,,,,,,João Pessoa,PB,Bairro dos Estados,,Avenida Presidente Epitacio Pessoa,,"Avenida Presidente Epitacio Pessoa, João Pessoa - PB",-7.1196999,-34.8471031,4
Aval Empresa De Avaliacoes Pericias E Arquitetura Ltda - Epp,Aval Empresa De Avaliacoes Pericias E Arquitetura Ltda - Epp,16.979.435/0001-60,SERVIÇOS,Atividades Imobiliárias e de Aluguel,,Pequeno Porte,de R$360 mil até R$3.6 M ,,,,,,,João Pessoa,PB,Aeroclube,,Rua Pastor Jesebias Fialho Marinho,,"Rua Pastor Jesebias Fialho Marinho, João Pessoa - PB",-7.0859889,-34.8414338,4
Terranova Empreendimentos Imobiliarios Ltda - Epp,Terranova Empreendimentos Imobiliarios Ltda - Epp,24.214.702/0001-36,SERVIÇOS,Atividades Imobiliárias e de Aluguel,,Pequeno Porte,de R$360 mil até R$3.6 M ,,,,,,,João Pessoa,PB,Manaíra,,Avenida Flavio Ribeiro Coutinho,,"Avenida Flavio Ribeiro Coutinho, João Pessoa - PB",-7.0976486,-34.8408272,4
Delma Gomes Negocios Imobiliarios Ltda - Epp,Delma Gomes Negocios Imobiliarios Ltda - Epp,13.505.703/0001-13,SERVIÇOS,Atividades Imobiliárias e de Aluguel,,Pequeno Porte,de R$360 mil até R$3.6 M ,,,,,,,João Pessoa,PB,Bessa,,Rua Fernando Luiz Henriques Dos Santos,,"Rua Fernando Luiz Henriques Dos Santos, João Pessoa - PB",-7.0849425,-34.8343261,4
Teixeira De Carvalho Empreendimentos Imobiliarios Ltda - Epp,Teixeira De Carvalho Empreendimentos Imobiliarios Ltda - Epp,00.348.325/0001-60,SERVIÇOS,Atividades Imobiliárias e de Aluguel,,Pequeno Porte,de R$360 mil até R$3.6 M ,,,,,,,João Pessoa,PB,Manaíra,,Avenida Edson Ramalho,,"Avenida Edson Ramalho, João Pessoa - PB",-7.1048608,-34.8310873,4
Premiere Imobiliaria Ltda. - Epp,Premiere Imobiliaria Ltda. - Epp,10.934.320/0001-72,SERVIÇOS,Atividades Imobiliárias e de Aluguel,,Pequeno Porte,de R$360 mil até R$3.6 M ,,,,,,,João Pessoa,PB,Cruz das Armas,,Avenida Cruz Das Armas,,"Avenida Cruz Das Armas, João Pessoa - PB",-7.1487564,-34.893197,2
Vl Imobiliaria Eireli - Epp,Vl Imobiliaria Eireli - Epp,11.087.496/0001-07,SERVIÇOS,Atividades Imobiliárias e de Aluguel,,Pequeno Porte,de R$360 mil até R$3.6 M ,,,,,,,João Pessoa,PB,Centro,,Rua Rodrigues De Aquino,,"Rua Rodrigues De Aquino, João Pessoa - PB",-7.1258585,-34.8830098,4
Egallo Participacoes Ltda - Epp,Egallo Participacoes Ltda - Epp,12.658.086/0001-23,SERVIÇOS,Atividades Imobiliárias e de Aluguel,,Pequeno Porte,de R$360 mil até R$3.6 M ,,,,,,,João Pessoa,PB,Tambiá,,Rua Jose Lianza,,"Rua Jose Lianza, João Pessoa - PB",-7.1147551,-34.8778485,4
Confianca Tecnologia E Servicos Ltda - Epp,Confianca Tecnologia E Servicos Ltda - Epp,10.633.938/0001-00,SERVIÇOS,Atividades Imobiliárias e de Aluguel,,Pequeno Porte,de R$360 mil até R$3.6 M ,,,,,,,João Pessoa,PB,Centro,,Rua Rodrigues De Aquino,,"Rua Rodrigues De Aquino, João Pessoa - PB",-7.1258585,-34.8830098,4
J.H.R. Empreendimentos Imobiliarios Ltda - Epp,J.H.R. Empreendimentos Imobiliarios Ltda - Epp,19.535.711/0001-99,SERVIÇOS,Atividades Imobiliárias e de Aluguel,,Pequeno Porte,de R$360 mil até R$3.6 M ,,,,,,,João Pessoa,PB,Ernesto Geisel,,Rua Antonio Arantes,,"Rua Antonio Arantes, João Pessoa - PB",-7.1769363,-34.8677867,4
Alfa Participacoes,Alfa Empreendimentos Ltda - Epp,20.042.532/0001-07,SERVIÇOS,Atividades Imobiliárias e de Aluguel,,Pequeno Porte,de R$360 mil até R$3.6 M ,,,,,,,Patos,PB,Centro,,Rua Doutor Pedro Firmino,,"Rua Doutor Pedro Firmino, Patos - PB",-7.0085965,-37.2869952,4
Ps Empreendimentos Spe Ltda - Epp,Ps Empreendimentos Spe Ltda - Epp,13.859.827/0001-05,SERVIÇOS,Atividades Imobiliárias e de Aluguel,,Pequeno Porte,de R$360 mil até R$3.6 M ,,,,,,,Sapé,PB,Centro,,Rua Orcine Fernandes,,"Rua Orcine Fernandes, Sapé - PB",-7.0966447,-35.2298623,4
Igatu Empreendimentos Imobiliarios Ltda - Epp,Igatu Empreendimentos Imobiliarios Ltda - Epp,05.240.511/0001-02,SERVIÇOS,Atividades Imobiliárias e de Aluguel,,Pequeno Porte,de R$360 mil até R$3.6 M ,,,,,,,Campina Grande,PB,Prata,,Rua Nilo Pecanha,,"Rua Nilo Pecanha, Campina Grande - PB",-7.2221972,-35.8960461,4
Rossi Gestao Imobiliaria Ltda - Epp,Rossi Gestao Imobiliaria Ltda - Epp,16.433.988/0001-12,SERVIÇOS,Atividades Imobiliárias e de Aluguel,,Pequeno Porte,de R$360 mil até R$3.6 M ,,,,,,,Campina Grande,PB,Catolé,,Rua Vigario Calixto,,"Rua Vigario Calixto, Campina Grande - PB",-7.243378,-35.8791049,4
Bompar AdministraÇÃo De ImÓveis Ltda - Epp,Bompar AdministraÇÃo De ImÓveis Ltda - Epp,22.772.429/0001-30,SERVIÇOS,Atividades Imobiliárias e de Aluguel,,Pequeno Porte,de R$360 mil até R$3.6 M ,,,,,,,João Pessoa,PB,Aeroclube,,Rua Pastor Josebias Fialho Marinho,,"Rua Pastor Josebias Fialho Marinho, João Pessoa - PB",-7.0859889,-34.8414338,4
Athos Gold Imobiliaria E Servicos Eireli - Epp,Athos Gold Imobiliaria E Servicos Eireli - Epp,24.314.457/0001-39,SERVIÇOS,Atividades Imobiliárias e de Aluguel,,Pequeno Porte,de R$360 mil até R$3.6 M ,,,,,,,João Pessoa,PB,Valentina De Figueiredo,,Rua Inspetora Emilia Mendonca Gomes,,"Rua Inspetora Emilia Mendonca Gomes, João Pessoa - PB",-7.2015465,-34.8422129,4
P Bezerra Imobiliaria E Servicos Ltda - Epp,P Bezerra Imobiliaria E Servicos Ltda - Epp,22.028.329/0001-01,SERVIÇOS,Atividades Imobiliárias e de Aluguel,,Pequeno Porte,de R$360 mil até R$3.6 M ,,,,,,,João Pessoa,PB,Jaguaribe,,Avenida Senador Joao Lira,,"Avenida Senador Joao Lira, João Pessoa - PB",-7.129119,-34.879793,2
Shopping Ponce De Leon Administracao De Imoveis Eireli - Epp,Shopping Ponce De Leon Administracao De Imoveis Eireli - Epp,20.333.854/0001-05,SERVIÇOS,Atividades Imobiliárias e de Aluguel,,Pequeno Porte,de R$360 mil até R$3.6 M ,,,,,,,João Pessoa,PB,Jardim Oceânia,,Rua Osorio Queiroga De Assis,,"Rua Osorio Queiroga De Assis, João Pessoa - PB",-7.0732528,-34.8365511,4
Porta Do Peixe Imobiliaria Ltda - Epp,Porta Do Peixe Imobiliaria Ltda - Epp,18.777.655/0001-36,SERVIÇOS,Atividades Imobiliárias e de Aluguel,,Pequeno Porte,de R$360 mil até R$3.6 M ,,,,,,,João Pessoa,PB,Bancários,,Rua Rosa Lima Dos Santos,,"Rua Rosa Lima Dos Santos, João Pessoa - PB",-7.1499693,-34.8335906,4
Rc NegÓcios ImobiliÁrios Ltda - Epp,Rc NegÓcios ImobiliÁrios Ltda - Epp,18.501.736/0001-09,SERVIÇOS,Atividades Imobiliárias e de Aluguel,,Pequeno Porte,de R$360 mil até R$3.6 M ,,,,,,,João Pessoa,PB,Manaíra,,Rua Euzely Fabricio De Souza,,"Rua Euzely Fabricio De Souza, João Pessoa - PB",-7.10267,-34.8374017,4
Marco Antonio Pombo Pereira De Barros Eireli - Epp,Marco Antonio Pombo Pereira De Barros Eireli - Epp,19.063.217/0001-79,SERVIÇOS,Atividades Imobiliárias e de Aluguel,,Pequeno Porte,de R$360 mil até R$3.6 M ,,,,,,,João Pessoa,PB,Miramar,,Avenida Senador Ruy Carneiro 853,,"Avenida Senador Ruy Carneiro 853, João Pessoa - PB",-7.1161383,-34.8366809,4
G. Nobrega - Incorporacoes E Construcoes Ltda. - Epp,G. Nobrega - Incorporacoes E Construcoes Ltda. - Epp,18.375.805/0001-85,SERVIÇOS,Atividades Imobiliárias e de Aluguel,,Pequeno Porte,de R$360 mil até R$3.6 M ,,,,,,,João Pessoa,PB,Valentina De Figueiredo,,Rua Antonio Firmino De Macedo,,"Rua Antonio Firmino De Macedo, João Pessoa - PB",-7.2035383,-34.8537396,4
Sc Consultoria Imobiliaria Eireli - Epp,Sc Consultoria Imobiliaria Eireli - Epp,17.979.435/0001-22,SERVIÇOS,Atividades Imobiliárias e de Aluguel,,Pequeno Porte,de R$360 mil até R$3.6 M ,,,,,,,João Pessoa,PB,Torre,,Avenida Ministro Jose Americo De Almeida,,"Avenida Ministro Jose Americo De Almeida, João Pessoa - PB",-7.1261073,-34.8493704,4
Ella Administracao De Imoveis Ltda - Epp,Ella Administracao De Imoveis Ltda - Epp,21.011.102/0001-82,SERVIÇOS,Atividades Imobiliárias e de Aluguel,,Pequeno Porte,de R$360 mil até R$3.6 M ,,,,,,,Itabaiana,PB,Centro,,Rua Suburbana,,"Rua Suburbana, Itabaiana - PB",-7.3338462,-35.3264543,4
Jc Negocios Imobiliarios Ltda - Epp,Jc Negocios Imobiliarios Ltda - Epp,12.386.293/0001-76,SERVIÇOS,Atividades Imobiliárias e de Aluguel,,Pequeno Porte,de R$360 mil até R$3.6 M ,,,,,,,João Pessoa,PB,Ernesto Geisel,,Rua Arcanjo De Holanda Cavalcanti,,"Rua Arcanjo De Holanda Cavalcanti, João Pessoa - PB",-7.1799126,-34.8725788,4
Concretize Negocios Imobiliarios Ltda - Epp,Concretize Negocios Imobiliarios Ltda - Epp,11.860.943/0001-00,SERVIÇOS,Atividades Imobiliárias e de Aluguel,,Pequeno Porte,de R$360 mil até R$3.6 M ,,,,,,,João Pessoa,PB,Manaíra,,Avenida Eutiquiano Barreto,,"Avenida Eutiquiano Barreto, João Pessoa - PB",-7.105056,-34.8350864,4
Cs Negocios Imobiliarios Ltda - Epp,Cs Negocios Imobiliarios Ltda - Epp,13.016.622/0001-50,SERVIÇOS,Atividades Imobiliárias e de Aluguel,,Pequeno Porte,de R$360 mil até R$3.6 M ,,,,,,,João Pessoa,PB,Bessa,,Rua Fernando Luiz Henrique Dos Santos,,"Rua Fernando Luiz Henrique Dos Santos, João Pessoa - PB",-7.0849425,-34.8343261,4
Erli Cabral De Lima Junior - Epp,Erli Cabral De Lima Junior - Epp,16.811.823/0001-37,SERVIÇOS,Atividades Imobiliárias e de Aluguel,,Pequeno Porte,de R$360 mil até R$3.6 M ,,,,,,,João Pessoa,PB,Manaíra,,Avenida Inga,,"Avenida Inga, João Pessoa - PB",-7.1073528,-34.8333685,4
Megacorp Engenharia E Empreendimentos Ltda - Epp,Megacorp Engenharia E Empreendimentos Ltda - Epp,09.125.524/0001-83,SERVIÇOS,Atividades Imobiliárias e de Aluguel,,Pequeno Porte,de R$360 mil até R$3.6 M ,,,,,,,João Pessoa,PB,Bairro dos Estados,,Avenida Presidente Epitacio Pessoa,,"Avenida Presidente Epitacio Pessoa, João Pessoa - PB",-7.1196999,-34.8471031,4
Realiza Empreendimentos Imobiliarios Ltda - Epp,Realiza Empreendimentos Imobiliarios Ltda - Epp,08.879.120/0001-12,SERVIÇOS,Atividades Imobiliárias e de Aluguel,,Pequeno Porte,de R$360 mil até R$3.6 M ,,,,,,,João Pessoa,PB,Torre,,Avenida Duarte Da Silveira,,"Avenida Duarte Da Silveira, João Pessoa - PB",-7.1223881,-34.8724325,4
Shopping Cirne Center Ltda - Epp,Shopping Cirne Center Ltda - Epp,02.708.925/0001-17,SERVIÇOS,Atividades Imobiliárias e de Aluguel,,Pequeno Porte,de R$360 mil até R$3.6 M ,,,,,,,Campina Grande,PB,Centro,,Rua Afonso Campos,,"Rua Afonso Campos, Campina Grande - PB",-7.2193398,-35.8816382,4
Femax Consultoria Eireli - Epp,Femax Consultoria Eireli - Epp,03.376.011/0001-69,SERVIÇOS,Atividades Imobiliárias e de Aluguel,,Pequeno Porte,de R$360 mil até R$3.6 M ,,,,,,,Cruz do Espírito Santo,PB,Centro,,Rua Cezar Cartoxo,,"Rua Cezar Cartoxo, Cruz do Espírito Santo - PB",-7.1409389,-35.0907436,4
Jne Administradora De Condominios Ltda - Epp,Jne Administradora De Condominios Ltda - Epp,26.748.393/0001-00,SERVIÇOS,Atividades Imobiliárias e de Aluguel,,Pequeno Porte,de R$360 mil até R$3.6 M ,,,,,,,João Pessoa,PB,Centro,,Avenida Joao Machado,,"Avenida Joao Machado, João Pessoa - PB",-7.1261454,-34.8782661,4
Master Construcoes,Mpa - Construcoes E Incorporacoes Ltda - Epp,04.354.036/0001-24,SERVIÇOS,Atividades Imobiliárias e de Aluguel,,Pequeno Porte,de R$360 mil até R$3.6 M ,,,,,,,João Pessoa,PB,Jaguaribe,,Rua Coronel Aristarco Pessoa,,"Rua Coronel Aristarco Pessoa, João Pessoa - PB",-7.1386098,-34.881149,2
Norcopos Galpoes E Servicos Eireli - Epp,Norcopos Galpoes E Servicos Eireli - Epp,41.120.296/0001-61,SERVIÇOS,Atividades Imobiliárias e de Aluguel,,Pequeno Porte,de R$360 mil até R$3.6 M ,,,,,,,João Pessoa,PB,Distrito Industrial,,"Br 101 Km 1,5",,"Br 101 Km 1,5, João Pessoa - PB",-7.1835707,-34.9003814,4
Lle Holding E Participacoes Eireli - Epp,Lle Holding E Participacoes Eireli - Epp,11.916.249/0001-68,SERVIÇOS,Atividades Imobiliárias e de Aluguel,,Pequeno Porte,de R$360 mil até R$3.6 M ,,,,,,,João Pessoa,PB,Tambiá,,"Rua Jose Lianza, Esquina Com Padre Rolim",,"Rua Jose Lianza, Esquina Com Padre Rolim, João Pessoa - PB",-7.1147551,-34.8778485,4
Maranata Imoveis,A & M Negocios Imobiliarios Ltda,14.245.520/0001-79,SERVIÇOS,Atividades Imobiliárias e de Aluguel,,Pequeno Porte,de R$360 mil até R$3.6 M ,,,,,,,João Pessoa,PB,Manaíra,,Avenida Franca Filho,,"Avenida Franca Filho, João Pessoa - PB",-7.1097805,-34.8300611,4
Negocial Administracao De Bens Imoveis Ltda - Epp,Negocial Administracao De Bens Imoveis Ltda - Epp,25.286.745/0001-90,SERVIÇOS,Atividades Imobiliárias e de Aluguel,,Pequeno Porte,de R$360 mil até R$3.6 M ,,,,,,,João Pessoa,PB,Manaíra,,Avenida Esperanca,,"Avenida Esperanca, João Pessoa - PB",-7.1059664,-34.8336358,4
N & N - Construcoes E Incorporacoes Ltda - Epp,N & N - Construcoes E Incorporacoes Ltda - Epp,26.063.293/0001-40,SERVIÇOS,Atividades Imobiliárias e de Aluguel,,Pequeno Porte,de R$360 mil até R$3.6 M ,,,,,,,João Pessoa,PB,Mangabeira,,Rua Edileuza Braga De Oliveira,,"Rua Edileuza Braga De Oliveira, João Pessoa - PB",-7.1772732,-34.83768,2
F & C Participacoes E Administracao Ltda - Epp,F & C Participacoes E Administracao Ltda - Epp,05.891.441/0001-44,SERVIÇOS,Atividades Imobiliárias e de Aluguel,,Pequeno Porte,de R$360 mil até R$3.6 M ,,,,,,,João Pessoa,PB,Água Fria,,Avenida Estevao Gerson Carneiro Da Cunha,,"Avenida Estevao Gerson Carneiro Da Cunha, João Pessoa - PB",-7.1648028,-34.8595151,4
Nascimento Escritorio Imobiliario,Nascimento Escritorio Imobiliario Ltda - Epp,05.935.304/0001-64,SERVIÇOS,Atividades Imobiliárias e de Aluguel,,Pequeno Porte,de R$360 mil até R$3.6 M ,,,,,,,João Pessoa,PB,Cruz das Armas,,Avenida Cruz Das Armas,,"Avenida Cruz Das Armas, João Pessoa - PB",-7.1487564,-34.893197,2
Meta Imobiliaria,Pereira E Araujo Imobiliaria Ltda - Epp,26.908.471/0001-96,SERVIÇOS,Atividades Imobiliárias e de Aluguel,,Pequeno Porte,de R$360 mil até R$3.6 M ,,,,,,,Campina Grande,PB,Centro,,Rua Vidal De Negreiros,,"Rua Vidal De Negreiros, Campina Grande - PB",-7.2210984,-35.8828724,4
Trust Participacoes Ltda - Epp,Trust Participacoes Ltda - Epp,06.973.406/0001-37,SERVIÇOS,Atividades Imobiliárias e de Aluguel,,Pequeno Porte,de R$360 mil até R$3.6 M ,,,,,,,João Pessoa,PB,Bairro dos Estados,,Avenida Presidente Epitacio Pessoa,,"Avenida Presidente Epitacio Pessoa, João Pessoa - PB",-7.1196999,-34.8471031,4
Mares Do Atlantico Empreendimentos Imobiliarios Spe Ltda - Epp,Mares Do Atlantico Empreendimentos Imobiliarios Spe Ltda - Epp,25.342.862/0001-23,SERVIÇOS,Atividades Imobiliárias e de Aluguel,,Pequeno Porte,de R$360 mil até R$3.6 M ,,,,,,,Santa Rita,PB,Zona Rural,,Fazenda Miriri,,"Fazenda Miriri, Santa Rita - PB",-6.9454124,-35.1326959,4
Sol E Mar Participacoes Imobiliaria Ltda - Epp,Sol E Mar Participacoes Imobiliaria Ltda - Epp,07.040.328/0001-80,SERVIÇOS,Atividades Imobiliárias e de Aluguel,,Pequeno Porte,de R$360 mil até R$3.6 M ,,,,,,,Cabedelo,PB,Renascer,,Rodovia Br-230,,"Rodovia Br-230, Cabedelo - PB",-7.0395875,-34.8446341,4
Consulte Consultoria Tecnica - Epp,Consulte Consultoria Tecnica - Epp,02.480.768/0001-35,SERVIÇOS,Atividades Imobiliárias e de Aluguel,,Pequeno Porte,de R$360 mil até R$3.6 M ,,,,,,,Cabedelo,PB,Camboinha,,Avenida Max Zagel,,"Avenida Max Zagel, Cabedelo - PB",-7.0082066,-34.8273487,4
Barbosa & Soares Compra E Vendas De Imoveis Ltda - Epp,Barbosa & Soares Compra E Vendas De Imoveis Ltda - Epp,11.723.950/0001-60,SERVIÇOS,Atividades Imobiliárias e de Aluguel,,Pequeno Porte,de R$360 mil até R$3.6 M ,,,,,,,Campina Grande,PB,Centro,,Rua Marques Do Herval,,"Rua Marques Do Herval, Campina Grande - PB",-7.2186187,-35.8849538,4
T. B. Empreendimentos Imobiliarios Ltda - Epp,T. B. Empreendimentos Imobiliarios Ltda - Epp,07.142.413/0001-50,SERVIÇOS,Atividades Imobiliárias e de Aluguel,,Pequeno Porte,de R$360 mil até R$3.6 M ,,,,,,,Campina Grande,PB,Centro,,Rua Januncio Ferreira,,"Rua Januncio Ferreira, Campina Grande - PB",-7.215724,-35.8796017,4
Link Construcao Incorporacao E Negocios Imobiliarios Ltda - Epp,Link Construcao Incorporacao E Negocios Imobiliarios Ltda - Epp,18.895.588/0001-54,SERVIÇOS,Atividades Imobiliárias e de Aluguel,,Pequeno Porte,de R$360 mil até R$3.6 M ,,,,,,,João Pessoa,PB,Centro,,Avenida Camilo De Holanda,,"Avenida Camilo De Holanda, João Pessoa - PB",-7.1239902,-34.8736658,4
Posto De Combustiveis Cabo Branco Ltda - Epp,Posto De Combustiveis Cabo Branco Ltda - Epp,12.682.704/0001-70,SERVIÇOS,Atividades Imobiliárias e de Aluguel,,Pequeno Porte,de R$360 mil até R$3.6 M ,,,,,,,João Pessoa,PB,Tambaú,,Avenida Ministro J A De Almeida,,"Avenida Ministro J A De Almeida, João Pessoa - PB",-7.1261073,-34.8493704,4
Mag Patrimonial E Participacoes Ltda - Epp,Mag Patrimonial E Participacoes Ltda - Epp,08.988.065/0001-07,SERVIÇOS,Atividades Imobiliárias e de Aluguel,,Pequeno Porte,de R$360 mil até R$3.6 M ,,,,,,,João Pessoa,PB,Manaíra,,Avenida Flavio Ribeiro Coutinho,,"Avenida Flavio Ribeiro Coutinho, João Pessoa - PB",-7.0976486,-34.8408272,4
Solida Imoveis Ltda - Epp,Solida Imoveis Ltda - Epp,01.000.239/0001-24,SERVIÇOS,Atividades Imobiliárias e de Aluguel,,Pequeno Porte,de R$360 mil até R$3.6 M ,,,,,,,João Pessoa,PB,Manaíra,,Avenida Joao Mauricio,,"Avenida Joao Mauricio, João Pessoa - PB",-7.1036005,-34.8302323,4
Imobiliaria Hn Ltda - Epp,Imobiliaria Hn Ltda - Epp,08.043.984/0001-08,SERVIÇOS,Atividades Imobiliárias e de Aluguel,,Pequeno Porte,de R$360 mil até R$3.6 M ,,,,,,,João Pessoa,PB,Bancários,,Rua Bancario Antonio Rosa Da Silva,,"Rua Bancario Antonio Rosa Da Silva, João Pessoa - PB",-7.1480949,-34.8419405,4
Pedra Fundamental Imobiliaria Ltda - Epp,Pedra Fundamental Imobiliaria Ltda - Epp,12.681.953/0001-41,SERVIÇOS,Atividades Imobiliárias e de Aluguel,,Pequeno Porte,de R$360 mil até R$3.6 M ,,,,,,,João Pessoa,PB,Cristo Redentor,,Rua Presidente Raniere Mazilli,,"Rua Presidente Raniere Mazilli, João Pessoa - PB",-7.1638058,-34.8679869,4
Execut Consultoria & Negocios Imobiliarios Ltda - Epp,Execut Consultoria & Negocios Imobiliarios Ltda - Epp,24.219.966/0001-82,SERVIÇOS,Atividades Imobiliárias e de Aluguel,,Pequeno Porte,de R$360 mil até R$3.6 M ,,,,,,,João Pessoa,PB,Tambaú,,Avenida Nossa Senhora Dos Navegantes,,"Avenida Nossa Senhora Dos Navegantes, João Pessoa - PB",-7.1152041,-34.8247649,4
Aldivan Teixeira Realizacoes Imobiliarias Ltda - Epp,Aldivan Teixeira Realizacoes Imobiliarias Ltda - Epp,15.465.772/0001-76,SERVIÇOS,Atividades Imobiliárias e de Aluguel,,Pequeno Porte,de R$360 mil até R$3.6 M ,,,,,,,João Pessoa,PB,Manaíra,,Avenida Joao Mauricio,,"Avenida Joao Mauricio, João Pessoa - PB",-7.1036005,-34.8302323,4
Acao Administradora De Condominios S/S Ltda - Epp,Acao Administradora De Condominios S/S Ltda - Epp,17.005.804/0001-86,SERVIÇOS,Atividades Imobiliárias e de Aluguel,,Pequeno Porte,de R$360 mil até R$3.6 M ,,,,,,,João Pessoa,PB,Centro,,Rua Afonso Campos,,"Rua Afonso Campos, João Pessoa - PB",-7.1233681,-34.8756408,4
Inteligence Engenharia E Construcoes,Inteligence Servicos Financeiros E Imobiliarios Ltda - Epp,12.611.777/0001-71,SERVIÇOS,Atividades Imobiliárias e de Aluguel,,Pequeno Porte,de R$360 mil até R$3.6 M ,,,,,,,Bayeux,PB,Centro,,Avenida Liberdade,,"Avenida Liberdade, Bayeux - PB",-7.1224175,-34.9145398,4
Carvalho Loteamentos,Lr Loteamentos E Servicos Eireli - Epp,20.085.780/0001-27,SERVIÇOS,Atividades Imobiliárias e de Aluguel,,Pequeno Porte,de R$360 mil até R$3.6 M ,,,,,,,Patos,PB,Centro,,Rua Peregrino Filho,,"Rua Peregrino Filho, Patos - PB",-7.0268248,-37.2731335,4
Vimael Imobiliaria E Publicidade Ltda - Epp,Vimael Imobiliaria E Publicidade Ltda - Epp,04.302.609/0001-76,SERVIÇOS,Atividades Imobiliárias e de Aluguel,,Pequeno Porte,de R$360 mil até R$3.6 M ,,,,,,,Cabedelo,PB,Ponta de Campina,,Rodovia Br 230 Km 06,,"Rodovia Br 230 Km 06, Cabedelo - PB",-7.0285971,-34.8392359,4
Jvl Participacoes E Administracao De Imoveis Ltda - Epp,Jvl Participacoes E Administracao De Imoveis Ltda - Epp,24.383.402/0001-80,SERVIÇOS,Atividades Imobiliárias e de Aluguel,,Pequeno Porte,de R$360 mil até R$3.6 M ,,,,,,,João Pessoa,PB,Torre,,Avenida Conego Mathias Freire,,"Avenida Conego Mathias Freire, João Pessoa - PB",-7.1257564,-34.8690269,4
Verdes Mares Loteamento Spe Ltda - Epp,Verdes Mares Loteamento Spe Ltda - Epp,24.497.495/0001-74,SERVIÇOS,Atividades Imobiliárias e de Aluguel,,Pequeno Porte,de R$360 mil até R$3.6 M ,,,,,,,João Pessoa,PB,Aeroclube,,Rua Pastor Josebias Fialho Marinho,,"Rua Pastor Josebias Fialho Marinho, João Pessoa - PB",-7.0859889,-34.8414338,4
TamandarÉ NegÓcios ImobiliÁrios Eireli - Epp,TamandarÉ NegÓcios ImobiliÁrios Eireli - Epp,21.636.252/0001-81,SERVIÇOS,Atividades Imobiliárias e de Aluguel,,Pequeno Porte,de R$360 mil até R$3.6 M ,,,,,,,João Pessoa,PB,Manaíra,,Avenida General Edson Ramalho,,"Avenida General Edson Ramalho, João Pessoa - PB",-7.1048608,-34.8310873,4
Objetiva Administradora De CondomÍnios Ltda - Epp,Objetiva Administradora De CondomÍnios Ltda - Epp,24.070.052/0001-00,SERVIÇOS,Atividades Imobiliárias e de Aluguel,,Pequeno Porte,de R$360 mil até R$3.6 M ,,,,,,,João Pessoa,PB,Centro,,Avenida Joao Machado,,"Avenida Joao Machado, João Pessoa - PB",-7.1261454,-34.8782661,4
Michelle Villas Franco Da Silva - Eireli - Epp,Michelle Villas Franco Da Silva - Eireli - Epp,24.040.604/0001-20,SERVIÇOS,Atividades Imobiliárias e de Aluguel,,Pequeno Porte,de R$360 mil até R$3.6 M ,,,,,,,João Pessoa,PB,Manaíra,,Rua Joao Cancio,,"Rua Joao Cancio, João Pessoa - PB",-7.1068097,-34.8347284,4
Athos Imobiliaria E Servicos Eireli - Epp,Athos Imobiliaria E Servicos Eireli - Epp,21.523.120/0001-43,SERVIÇOS,Atividades Imobiliárias e de Aluguel,,Pequeno Porte,de R$360 mil até R$3.6 M ,,,,,,,João Pessoa,PB,Anatolia,,Rua Francisco Timoteo De Souza,,"Rua Francisco Timoteo De Souza, João Pessoa - PB",-7.1515521,-34.8424732,4
Ferrer Consultoria Imobiliaria Eireli - Epp,Ferrer Consultoria Imobiliaria Eireli - Epp,18.027.119/0001-13,SERVIÇOS,Atividades Imobiliárias e de Aluguel,,Pequeno Porte,de R$360 mil até R$3.6 M ,,,,,,,João Pessoa,PB,Valentina De Figueiredo,,Rua Mariangela Lucena Peixoto,,"Rua Mariangela Lucena Peixoto, João Pessoa - PB",-7.2018892,-34.8501245,4
Pg Administracao E Imobiliaria Ltda - Epp,Pg Administracao E Imobiliaria Ltda - Epp,18.244.047/0001-66,SERVIÇOS,Atividades Imobiliárias e de Aluguel,,Pequeno Porte,de R$360 mil até R$3.6 M ,,,,,,,João Pessoa,PB,Aeroclube,,Rua Adao Viana Da Rosa,,"Rua Adao Viana Da Rosa, João Pessoa - PB",-7.0942446,-34.8453489,4
Havila Shopping Open Mall Ltda - Epp,Havila Shopping Open Mall Ltda - Epp,14.548.941/0001-79,SERVIÇOS,Atividades Imobiliárias e de Aluguel,,Pequeno Porte,de R$360 mil até R$3.6 M ,,,,,,,Sapé,PB,Zona Rural,,Rodovia Pb-055,,"Rodovia Pb-055, Sapé - PB",-7.0961468,-35.2302461,4
Cf Empreedimentos Imobiliarios Ltda - Epp,Cf Empreedimentos Imobiliarios Ltda - Epp,26.064.538/0001-53,SERVIÇOS,Atividades Imobiliárias e de Aluguel,,Pequeno Porte,de R$360 mil até R$3.6 M ,,,,,,,Sapé,PB,Zona Rural,,Fazenda Santa Luzia Ii,,"Fazenda Santa Luzia Ii, Sapé - PB",-6.8717535,-36.9213608,4
M & D Negocios Imobiliarios Ltda - Epp,M & D Negocios Imobiliarios Ltda - Epp,26.243.380/0001-89,SERVIÇOS,Atividades Imobiliárias e de Aluguel,,Pequeno Porte,de R$360 mil até R$3.6 M ,,,,,,,Patos,PB,Belo Horizonte,,Rua Alexandre De Carvalho,,"Rua Alexandre De Carvalho, Patos - PB",-7.0188452,-37.2848721,4
M. Freire Locacao De Imoveis Ltda - Epp,M. Freire Locacao De Imoveis Ltda - Epp,07.521.992/0001-41,SERVIÇOS,Atividades Imobiliárias e de Aluguel,,Pequeno Porte,de R$360 mil até R$3.6 M ,,,,,,,Lucena,PB,Chacara Chianca De Gusmao,,Avenida Principal,,"Avenida Principal, Lucena - PB",-6.9029848,-34.8750825,4
Galdino Administradora De Imoveis Ltda - Epp,Galdino Administradora De Imoveis Ltda - Epp,13.462.135/0001-10,SERVIÇOS,Atividades Imobiliárias e de Aluguel,,Pequeno Porte,de R$360 mil até R$3.6 M ,,,,,,,Sao Joao Do Rio Do Peixe,PB,Zona Rural,,"Rodovia Pb 393, Km 25",,"Rodovia Pb 393, Km 25, Sao Joao Do Rio Do Peixe - PB",-6.7272534,-38.449499,2
Taglicher,Lopes & Lopes Ltda - Epp,06.023.595/0001-87,SERVIÇOS,Atividades Imobiliárias e de Aluguel,,Pequeno Porte,de R$360 mil até R$3.6 M ,,,,,,,Campina Grande,PB,Jardim Tavares,,Rua Dr Raiff Ramalho,,"Rua Dr Raiff Ramalho, Campina Grande - PB",-7.2462192,-35.9125747,4
Condominio B & B,Dois Irmaos AdministraÇÃo De Imoveis Ltda - Epp,24.242.425/0001-75,SERVIÇOS,Atividades Imobiliárias e de Aluguel,,Pequeno Porte,de R$360 mil até R$3.6 M ,,,,,,,Caaporã,PB,Distrito Industrial,,Rodovia Br Pb 43 Km 0,,"Rodovia Br Pb 43 Km 0, Caaporã - PB",-7.7924757,-34.9287305,4
Reserva Do Abiai Investimentos Imobiliarios Ltda,Reserva Do Abiai Investimentos Imobiliarios Ltda,21.794.026/0001-29,SERVIÇOS,Atividades Imobiliárias e de Aluguel,,Pequeno Porte,de R$360 mil até R$3.6 M ,,,,,,,Pitimbu,PB,Zona Rural,,Fazenda Cabeca,,"Fazenda Cabeca, Pitimbu - PB",-7.4636238,-34.8106774,4
L.A Brital Empreendimentos Imobiliarios Ltda,L.A Brital Empreendimentos Imobiliarios Ltda,10.983.821/0001-49,SERVIÇOS,Atividades Imobiliárias e de Aluguel,,Pequeno Porte,de R$360 mil até R$3.6 M ,,,,,,,Pitimbu,PB,Tamaba Country Club Resort,,"Rodovia Pb 008, Lote 759",,"Rodovia Pb 008, Lote 759, Pitimbu - PB",-6.9384136,-34.8691098,4
Clube Campestre,Clube Campestre,08.580.409/0001-36,SERVIÇOS,Atividades recreativas e culturais,Associação Privada, Pequeno porte,de R$360 mil até R$3.6 M ,Não Informado,20 à 49,3/1/1984,Nelson Gomes Filho,(83) 3331-1210,campestrecgd@uol.com.br,Campina Grande,PB,Catole,58.410-215,Avenida Elpidio De Almeida,2350,"Avenida Elpidio De Almeida, Campina Grande - PB",-7.2388106,-35.8754782,4
Area De Lazer Pesque Pague E Restaurante,Antonio Loureiro Lopes - Epp, 14.253.446/0001-32,SERVIÇOS,Atividades recreativas e culturais,Empresário (Individual), Pequeno porte,de R$360 mil até R$3.6 M ,"50,000.00",Não Informado,9/5/2011,Não Informado,(83) 8864-8226,tonholoureiro@hotmail.com,Emas,PB,Zona Rural,58.763-000,Estm Fazenda Angicos,S/N,"Estm Fazenda Angicos, Emas - PB",-5.5967043,-36.6525696,4
Top Eventos & Servicos Ltda - Epp,Top Eventos & Servicos Ltda - Epp,08.771.079/0001-66,SERVIÇOS,Atividades recreativas e culturais,Sociedade Empresária Limitada, Pequeno porte,de R$360 mil até R$3.6 M ,Não Informado,Não Informado,4/18/2007,Não Informado,Não Informado,Não Informado,Joao Pessoa,PB,Centro,58.013-020,Avenida Almirante Barroso,S/N,"Avenida Almirante Barroso, Joao Pessoa - PB",-7.1204049,-34.8736075,4
Academia Procorpo Ltda - Epp,Academia Procorpo Ltda - Epp,17.115.003/0001-73,SERVIÇOS,Atividades recreativas e culturais,Sociedade Empresária Limitada, Pequeno porte,de R$360 mil até R$3.6 M ,Não Informado,Não Informado,26/10/2012,Não Informado,Não Informado,Não Informado,Joao Pessoa,PB,Valentina De Figueiredo,58.064-360,Avenida Inspetora Emilia De Mendonca Gomes,S/N,"Avenida Inspetora Emilia De Mendonca Gomes, Joao Pessoa - PB",-7.2024866,-34.8434025,4
Studio Vigor,Academia Studio Vigor Ltda - Epp,19.440.501/0001-17,SERVIÇOS,Atividades recreativas e culturais,Sociedade Empresária Limitada, Pequeno porte,de R$360 mil até R$3.6 M ,Não Informado,Até 4,20/12/2013,Não Informado,(83) 3576-0898,veloso.junior@uol.com.br,Caapora,PB,Centro,58.326-000,Rua Euclidia M De Oliveira,112,"Rua Euclidia M De Oliveira, Caapora - PB",-7.515441,-34.9175307,4
Celebrate Boate E Eventos Ltda - Epp,Celebrate Boate E Eventos Ltda - Epp,19.621.331/0001-77,SERVIÇOS,Atividades recreativas e culturais,Sociedade Empresária Limitada, Pequeno porte,de R$360 mil até R$3.6 M ,Não Informado,Não Informado,1/29/2014,Não Informado,Não Informado,Não Informado,Joao Pessoa,PB,Altiplano Cabo Branco,58.046-090,Rua Poeta Targino Teixeira,S/N,"Rua Poeta Targino Teixeira, Joao Pessoa - PB",-7.1293812,-34.8269185,4
Ophicina De Restauracao Projetos E Servicos Ltda - Epp,Ophicina De Restauracao Projetos E Servicos Ltda - Epp,09.029.436/0001-88,SERVIÇOS,Atividades recreativas e culturais,Sociedade Empresária Limitada, Pequeno porte,de R$360 mil até R$3.6 M ,Não Informado,Não Informado,9/4/2007,Não Informado,Não Informado,Não Informado,Joao Pessoa,PB, Torre,58.040-210,Rua Joaquim Torres,S/N,"Rua Joaquim Torres, Joao Pessoa - PB",-7.1233301,-34.8669045,4
Lotep,Loteria Do Estado Da Paraiba,09.300.922/0001-99,SERVIÇOS,Atividades recreativas e culturais,Autarquia Estadual Ou Do Distrito Federal, Pequeno porte,de R$360 mil até R$3.6 M ,Não Informado,20 à 49,9/1/1993,Não Informado,Não Informado,Não Informado,Joao Pessoa,PB,Varadouro,58.010-420,Rua Cardoso Vieira,265,"Rua Cardoso Vieira, Joao Pessoa - PB",-7.1161092,-34.8875013,4
Fepalo,Federacao Paraibana De Luta Olimpica,09.404.714/0001-30,SERVIÇOS,Atividades recreativas e culturais,Associação Privada, Pequeno porte,de R$360 mil até R$3.6 M ,Não Informado,10 à 19,3/5/2008,Adjailson Fernandes Coutinho,(83) 8856-1830,lutaolimpicapb@gmail.com,Joao Pessoa,PB,Tambia,58.020-500,Rua Dep. Odon Bezerra,184,"Rua Dep. Odon Bezerra, Joao Pessoa - PB",-7.1151481,-34.879769,2
Pirlimpimpim,Pa Servicos E Diversoes Ltda,05.881.320/0001-11,SERVIÇOS,Atividades recreativas e culturais,Sociedade Empresária Limitada, Pequeno porte,de R$360 mil até R$3.6 M ,"40,000.00",10 à 19,9/22/2003,"Adriano Amorim Pinheiro, Rosaline Araujo Pinheiro",(83) 3246-5217,paservicosediversoes@hotmail.com,Joao Pessoa,PB,Jardim Oceania,58.037-030,Avenida Governador Argemiro De Figueiredo,173,"Avenida Governador Argemiro De Figueiredo, Joao Pessoa - PB",-7.0845915,-34.8332236,4
Littoral Hotel Futebol Clube,Littoral Hotel Futebol Clube,03.458.898/0001-34,SERVIÇOS,Atividades recreativas e culturais,Associação Privada, Pequeno porte,de R$360 mil até R$3.6 M ,Não Informado,20 à 49,18/10/1999,Rosa Marques Lins,(83) 2471-100,hotel@hotellittoral.com.br,Joao Pessoa,PB,Cabo Branco,58.045-010,Avenida Cabo Branco,2172,"Avenida Cabo Branco, Joao Pessoa - PB",-7.1399053,-34.8166105,4
Aquazul Academia,Aquazul Academia Ltda - Epp,11.137.475/0001-40,SERVIÇOS,Atividades recreativas e culturais,Sociedade Empresária Limitada, Pequeno porte,de R$360 mil até R$3.6 M ,"85,000.00",5 à 9,9/11/2009,"Luiz Antonio Dantas Pereira, Eloide Andre Oliveira",(83) 3241-7726,bmcontab@terra.com.br,Joao Pessoa,PB,Bessa,58.035-180,Avenida Presidente Cafe Filho,477,"Avenida Presidente Cafe Filho, Joao Pessoa - PB",-7.0687,-34.8441261,4
Manaira Academia Ltda - Epp,Manaira Academia Ltda - Epp,06.143.909/0001-85,SERVIÇOS,Atividades recreativas e culturais,Sociedade Empresária Limitada, Pequeno porte,de R$360 mil até R$3.6 M ,Não Informado,20 à 49,3/16/2004,"Sirlene Maria De Arruda Fontes Omezzali, Thalita Fontes Omezzali",(83) 2267-255,Não Informado,Joao Pessoa,PB,Manaira,58.037-000,Avenida Flavio Ribeiro Coutinho,805,"Avenida Flavio Ribeiro Coutinho, Joao Pessoa - PB",-7.0976486,-34.8408272,4
Pg Servicos E Diversoes Ltda - Epp,Pg Servicos E Diversoes Ltda - Epp,05.339.409/0001-50,SERVIÇOS,Atividades recreativas e culturais,Sociedade Empresária Limitada, Pequeno porte,de R$360 mil até R$3.6 M ,Não Informado,5 à 9,18/10/2002,"Adriano Amorim Pinheiro, Rosaline Araujo Pinheiro",Não Informado,Não Informado,Joao Pessoa,PB,Manaira,58.037-000,Avenida Flavio Ribeiro Coutinho,805,"Avenida Flavio Ribeiro Coutinho, Joao Pessoa - PB",-7.0976486,-34.8408272,4
Laf Sports On Line Pb,Laf Sports On Line Jogos Eletronicos Da Paraiba Eireli - Epp,27.072.731/0001-07,SERVIÇOS,Atividades recreativas e culturais,Empresa Individual De Responsabilidade Limitada (De Natureza Empresária), Pequeno porte,de R$360 mil até R$3.6 M ,"200,000.00",Não Informado,2/9/2017,Luiz De Araujo Ferreira,(83) 8840-6818,Não Informado,Guarabira,PB,Centro,58.200-000,Lima E Moura,75,"Lima E Moura, Guarabira - PB",-6.8542892,-35.4887167,4
Dlp Academia Ltda - Epp,Dlp Academia Ltda - Epp,19.836.887/0001-80,SERVIÇOS,Atividades recreativas e culturais,Sociedade Empresária Limitada, Pequeno porte,de R$360 mil até R$3.6 M ,Não Informado,20 à 49,3/7/2014,Não Informado,Não Informado,Não Informado,Joao Pessoa,PB,Jardim Oceania,58.037-050,Rua Fernando Luiz Henriques Dos Santos,S/N,"Rua Fernando Luiz Henriques Dos Santos, Joao Pessoa - PB",-7.0849425,-34.8343261,4
Prodigio Academia Estacao Do Esporte Ltda - Epp,Prodigio Academia Estacao Do Esporte Ltda - Epp,00.753.912/0001-34,SERVIÇOS,Atividades recreativas e culturais,Sociedade Empresária Limitada, Pequeno porte,de R$360 mil até R$3.6 M ,Não Informado,20 à 49,8/15/1995,Não Informado,Não Informado,Não Informado,Joao Pessoa,PB,Tambau,58.039-111,Avenida N S Dos Navegantes,S/N,"Avenida N S Dos Navegantes, Joao Pessoa - PB",-7.1152041,-34.8247649,4
Academia Inteligente Ltda - Epp,Academia Inteligente Ltda - Epp,21.147.816/0001-12,SERVIÇOS,Atividades recreativas e culturais,Sociedade Empresária Limitada, Pequeno porte,de R$360 mil até R$3.6 M ,Não Informado,5 à 9,10/1/2014,Não Informado,Não Informado,Não Informado,Joao Pessoa,PB,Mangabeira,58.055-018,Avenida Hilton Souto Maior,S/N,"Avenida Hilton Souto Maior, Joao Pessoa - PB",-7.1632975,-34.8312853,4
Recanto Do Sertao,Cristiano Costa Dutra - Epp,13.369.361/0001-51,SERVIÇOS,Atividades recreativas e culturais,Empresário (Individual), Pequeno porte,de R$360 mil até R$3.6 M ,"30,000.00",5 à 9,2/28/2011,Não Informado,(83) 3441-2203,Não Informado,Catole Do Rocha,PB,Zona Rural,58.884-000,Sítio  Rancho Do Povo,S/N,"Sítio  Rancho Do Povo, Catole Do Rocha - PB",-6.316667,-37.716667,2
Miramar Esporte Clube,Miramar Esporte Clube,09.221.367/0001-00,SERVIÇOS,Atividades recreativas e culturais,Associação Privada, Pequeno porte,de R$360 mil até R$3.6 M ,Não Informado,10 à 19,3/31/1982,Ailton Alves Da Silva,(83) 3228-1150,Não Informado,Cabedelo,PB,Centro,58.310-000,Rua Monsenhor Walfredo Leal,106,"Rua Monsenhor Walfredo Leal, Cabedelo - PB",-7.1171013,-34.8738486,4
C.F. Construcoes,Construtora Ferreira Eireli - Epp,05.113.157/0001-47,INDÚSTRIA,"Coleta, tratamento e disposição de resíduos ou recuperação de materiais",Empresa Individual De Responsabilidade Limitada (De Natureza Empresária),Pequeno Porte,de R$360 mil até R$3.6 M ,"R$600,000.00",Não informado,6/25/2002,Josedi Da Silva Ferreira,(83) 9996-8853,construtora.ferreira@hotmail.com,Lagoa,PB,Barroquinha,58.835-000,Rua do Grupo,13,"Rua do Grupo, Lagoa - PB",37.1356176,-8.4514359,1
Ecopel Reciclagem Ltda - Epp,Ecopel Reciclagem Ltda - Epp,05.883.253/0001-74,INDÚSTRIA,"Coleta, tratamento e disposição de resíduos ou recuperação de materiais",Sociedade Empresária Limitada,Pequeno Porte,de R$360 mil até R$3.6 M ,Não informado,Não informado,9/17/2003,Não informado,Não informado,Não informado,Campina Grande,PB,Liberdade,58.105-000,Rua Assis Chateaubriand,S/N,"Rua Assis Chateaubriand, Campina Grande - PB",-7.2569515,-35.8873517,4
